{"chicago52f2ab2ebcbc57f1066b8b4f": {"venues": [{"id": "4be16527ea6e20a185fb9267", "name": "CTA Bus Stop 1108", "location": {"address": "Adams & S Wacker", "crossStreet": "Westbound", "lat": 41.87914358634876, "lng": -87.6363043896721, "labeledLatLngs": [{"label": "display", "lat": 41.87914358634876, "lng": -87.6363043896721}], "postalCode": "60606", "cc": "US", "city": "Chicago", "state": "IL", "country": "United States", "formattedAddress": ["Adams & S Wacker (Westbound)", "Chicago, IL 60606", "United States"]}, "categories": [{"id": "4bf58dd8d48988d1fe931735", "name": "Bus Station", "pluralName": "Bus Stations", "shortName": "Bus Station", "icon": {"prefix": "https://ss3.4sqi.net/img/categories_v2/travel/busstation_", "suffix": ".png"}, "primary": true}], "referralId": "v-1572923453", "hasPerk": false}, {"id": "4c1fed11eac020a1b0d74bc2", "name": "CTA Bus Stop 1106", "location": {"address": "Michigan & Washington", "crossStreet": "Southbound", "lat": 41.883466044005786, "lng": -87.62445553252658, "labeledLatLngs": [{"label": "display", "lat": 41.883466044005786, "lng": -87.62445553252658}], "postalCode": "60601", "cc": "US", "city": "Chicago", "state": "IL", "country": "United States", "formattedAddress": ["Michigan & Washington (Southbound)", "Chicago, IL 60601", "United States"]}, "categories": [{"id": "52f2ab2ebcbc57f1066b8b4f", "name": "Bus Stop", "pluralName": "Bus Stops", "shortName": "Bus Stop", "icon": {"prefix": "https://ss3.4sqi.net/img/categories_v2/travel/busstation_", "suffix": ".png"}, "primary": true}], "referralId": "v-1572923453", "hasPerk": false}, {"id": "4b619906f964a5206e192ae3", "name": "CTA Bus Stop 4867", "location": {"address": "Lake Shore Dr & Belmont", "crossStreet": "Southbound", "lat": 41.94047585880941, "lng": -87.63898834645849, "labeledLatLngs": [{"label": "display", "lat": 41.94047585880941, "lng": -87.63898834645849}], "postalCode": "60657", "cc": "US", "city": "Chicago", "state": "IL", "country": "United States", "formattedAddress": ["Lake Shore Dr & Belmont (Southbound)", "Chicago, IL 60657", "United States"]}, "categories": [{"id": "52f2ab2ebcbc57f1066b8b4f", "name": "Bus Stop", "pluralName": "Bus Stops", "shortName": "Bus Stop", "icon": {"prefix": "https://ss3.4sqi.net/img/categories_v2/travel/busstation_", "suffix": ".png"}, "primary": true}], "referralId": "v-1572923453", "hasPerk": false}, {"id": "4ec2d441722e1441c64e7453", "name": "Rosemont L Station And Pace Bus Plaza", "location": {"lat": 41.98364405420531, "lng": -87.85921712263327, "labeledLatLngs": [{"label": "display", "lat": 41.98364405420531, "lng": -87.85921712263327}], "postalCode": "60018", "cc": "US", "city": "Des Plaines", "state": "IL", "country": "United States", "formattedAddress": ["Des Plaines, IL 60018", "United States"]}, "categories": [{"id": "52f2ab2ebcbc57f1066b8b4f", "name": "Bus Stop", "pluralName": "Bus Stops", "shortName": "Bus Stop", "icon": {"prefix": "https://ss3.4sqi.net/img/categories_v2/travel/busstation_", "suffix": ".png"}, "primary": true}], "referralId": "v-1572923453", "hasPerk": false}, {"id": "5daa76aa6a55c10007d7af42", "name": "Cta Bus Stop 902 (Eastbound)", "location": {"address": "North Ave", "crossStreet": "Ashland Ave", "lat": 41.91051, "lng": -87.667946, "labeledLatLngs": [{"label": "display", "lat": 41.91051, "lng": -87.667946}], "postalCode": "60622", "cc": "US", "neighborhood": "Wicker Park", "city": "Chicago", "state": "IL", "country": "United States", "formattedAddress": ["North Ave (Ashland Ave)", "Chicago, IL 60622", "United States"]}, "categories": [{"id": "52f2ab2ebcbc57f1066b8b4f", "name": "Bus Stop", "pluralName": "Bus Stops", "shortName": "Bus Stop", "icon": {"prefix": "https://ss3.4sqi.net/img/categories_v2/travel/busstation_", "suffix": ".png"}, "primary": true}], "referralId": "v-1572923453", "hasPerk": false}, {"id": "4b983d98f964a520923635e3", "name": "CTA Bus Stop 1120", "location": {"address": "Michigan & South Water", "crossStreet": "Northbound", "lat": 41.88638750263369, "lng": -87.62446138030009, "labeledLatLngs": [{"label": "display", "lat": 41.88638750263369, "lng": -87.62446138030009}], "postalCode": "60601", "cc": "US", "city": "Chicago", "state": "IL", "country": "United States", "formattedAddress": ["Michigan & South Water (Northbound)", "Chicago, IL 60601", "United States"]}, "categories": [{"id": "52f2ab2ebcbc57f1066b8b4f", "name": "Bus Stop", "pluralName": "Bus Stops", "shortName": "Bus Stop", "icon": {"prefix": "https://ss3.4sqi.net/img/categories_v2/travel/busstation_", "suffix": ".png"}, "primary": true}], "referralId": "v-1572923453", "hasPerk": false}, {"id": "568b2795498edf3620e3906a", "name": "Loop Link Platform Madison & Dearborn", "location": {"lat": 41.881832136834895, "lng": -87.62932195574486, "labeledLatLngs": [{"label": "display", "lat": 41.881832136834895, "lng": -87.62932195574486}], "cc": "US", "city": "Chicago", "state": "IL", "country": "United States", "formattedAddress": ["Chicago, IL", "United States"]}, "categories": [{"id": "52f2ab2ebcbc57f1066b8b4f", "name": "Bus Stop", "pluralName": "Bus Stops", "shortName": "Bus Stop", "icon": {"prefix": "https://ss3.4sqi.net/img/categories_v2/travel/busstation_", "suffix": ".png"}, "primary": true}], "referralId": "v-1572923453", "hasPerk": false}, {"id": "58aafd739dc8d06718f7ac43", "name": "Megabus - Chicago Stop", "location": {"address": "W Polk St", "crossStreet": "btwn S Clinton St and Canal St", "lat": 41.871974110137955, "lng": -87.63998043571131, "labeledLatLngs": [{"label": "display", "lat": 41.871974110137955, "lng": -87.63998043571131}], "cc": "US", "neighborhood": "South Loop", "city": "Chicago", "state": "IL", "country": "United States", "formattedAddress": ["W Polk St (btwn S Clinton St and Canal St)", "Chicago, IL", "United States"]}, "categories": [{"id": "52f2ab2ebcbc57f1066b8b4f", "name": "Bus Stop", "pluralName": "Bus Stops", "shortName": "Bus Stop", "icon": {"prefix": "https://ss3.4sqi.net/img/categories_v2/travel/busstation_", "suffix": ".png"}, "primary": true}], "referralId": "v-1572923453", "hasPerk": false}, {"id": "5d07ad18113cf10023a92f4b", "name": "314 Pace Bus Stop Harrison St", "location": {"address": "Ridgeland", "crossStreet": "Harrison", "lat": 41.872597, "lng": -87.784267, "labeledLatLngs": [{"label": "display", "lat": 41.872597, "lng": -87.784267}], "postalCode": "60304", "cc": "US", "city": "Oak Park", "state": "IL", "country": "United States", "formattedAddress": ["Ridgeland (Harrison)", "Oak Park, IL 60304", "United States"]}, "categories": [{"id": "52f2ab2ebcbc57f1066b8b4f", "name": "Bus Stop", "pluralName": "Bus Stops", "shortName": "Bus Stop", "icon": {"prefix": "https://ss3.4sqi.net/img/categories_v2/travel/busstation_", "suffix": ".png"}, "primary": true}], "referralId": "v-1572923453", "hasPerk": false}, {"id": "57765e26498e14147a4b0ffb", "name": "Higgins & Melvina", "location": {"lat": 41.97547120020896, "lng": -87.78522355631102, "labeledLatLngs": [{"label": "display", "lat": 41.97547120020896, "lng": -87.78522355631102}], "cc": "US", "city": "Chicago", "state": "IL", "country": "United States", "formattedAddress": ["Chicago, IL", "United States"]}, "categories": [{"id": "52f2ab2ebcbc57f1066b8b4f", "name": "Bus Stop", "pluralName": "Bus Stops", "shortName": "Bus Stop", "icon": {"prefix": "https://ss3.4sqi.net/img/categories_v2/travel/busstation_", "suffix": ".png"}, "primary": true}], "referralId": "v-1572923453", "hasPerk": false}, {"id": "5807f8f638fa4c435388dbba", "name": "Loop Link Madison & Franklin", "location": {"lat": 41.88203313006982, "lng": -87.63558708552476, "labeledLatLngs": [{"label": "display", "lat": 41.88203313006982, "lng": -87.63558708552476}], "cc": "US", "city": "Chicago", "state": "IL", "country": "United States", "formattedAddress": ["Chicago, IL", "United States"]}, "categories": [{"id": "52f2ab2ebcbc57f1066b8b4f", "name": "Bus Stop", "pluralName": "Bus Stops", "shortName": "Bus Stop", "icon": {"prefix": "https://ss3.4sqi.net/img/categories_v2/travel/busstation_", "suffix": ".png"}, "primary": true}], "referralId": "v-1572923453", "hasPerk": false}, {"id": "5a0ae62a95d9862890f1c6a4", "name": "CTA - Howard & Elmwood (Stop 3516)", "location": {"address": "747 Howard St", "crossStreet": "Elmwood", "lat": 42.01950501837414, "lng": -87.68272193106483, "labeledLatLngs": [{"label": "display", "lat": 42.01950501837414, "lng": -87.68272193106483}], "postalCode": "60202", "cc": "US", "neighborhood": "Rogers Park", "city": "Evanston", "state": "IL", "country": "United States", "formattedAddress": ["747 Howard St (Elmwood)", "Evanston, IL 60202", "United States"]}, "categories": [{"id": "52f2ab2ebcbc57f1066b8b4f", "name": "Bus Stop", "pluralName": "Bus Stops", "shortName": "Bus Stop", "icon": {"prefix": "https://ss3.4sqi.net/img/categories_v2/travel/busstation_", "suffix": ".png"}, "primary": true}], "referralId": "v-1572923453", "hasPerk": false}, {"id": "56b2a5ee498e764da3b4a53b", "name": "CTA Bus Stop 17914", "location": {"lat": 41.91640518771482, "lng": -87.68741534291145, "labeledLatLngs": [{"label": "display", "lat": 41.91640518771482, "lng": -87.68741534291145}], "cc": "US", "city": "Chicago", "state": "IL", "country": "United States", "formattedAddress": ["Chicago, IL", "United States"]}, "categories": [{"id": "52f2ab2ebcbc57f1066b8b4f", "name": "Bus Stop", "pluralName": "Bus Stops", "shortName": "Bus Stop", "icon": {"prefix": "https://ss3.4sqi.net/img/categories_v2/travel/busstation_", "suffix": ".png"}, "primary": true}], "referralId": "v-1572923453", "hasPerk": false}, {"id": "5cb6460d4940bc002c45957f", "name": "Rosemont Entertainment District Shuttle", "location": {"lat": 41.98355, "lng": -87.85996, "labeledLatLngs": [{"label": "display", "lat": 41.98355, "lng": -87.85996}], "postalCode": "60018", "cc": "US", "city": "Rosemont", "state": "IL", "country": "United States", "formattedAddress": ["Rosemont, IL 60018", "United States"]}, "categories": [{"id": "52f2ab2ebcbc57f1066b8b4f", "name": "Bus Stop", "pluralName": "Bus Stops", "shortName": "Bus Stop", "icon": {"prefix": "https://ss3.4sqi.net/img/categories_v2/travel/busstation_", "suffix": ".png"}, "primary": true}], "referralId": "v-1572923453", "hasPerk": false}, {"id": "56b94713498eac0c496e6f04", "name": "Loop Link Madison & Wabash", "location": {"lat": 41.88205221919937, "lng": -87.625793033758, "labeledLatLngs": [{"label": "display", "lat": 41.88205221919937, "lng": -87.625793033758}], "cc": "US", "city": "Chicago", "state": "IL", "country": "United States", "formattedAddress": ["Chicago, IL", "United States"]}, "categories": [{"id": "52f2ab2ebcbc57f1066b8b4f", "name": "Bus Stop", "pluralName": "Bus Stops", "shortName": "Bus Stop", "icon": {"prefix": "https://ss3.4sqi.net/img/categories_v2/travel/busstation_", "suffix": ".png"}, "primary": true}], "referralId": "v-1572923453", "hasPerk": false}, {"id": "5c78690331fd1400382187c9", "name": "CTA Bus Stop 7680", "location": {"lat": 41.830881, "lng": -87.630677, "labeledLatLngs": [{"label": "display", "lat": 41.830881, "lng": -87.630677}], "postalCode": "60609", "cc": "US", "city": "Chicago", "state": "IL", "country": "United States", "formattedAddress": ["Chicago, IL 60609", "United States"]}, "categories": [{"id": "52f2ab2ebcbc57f1066b8b4f", "name": "Bus Stop", "pluralName": "Bus Stops", "shortName": "Bus Stop", "icon": {"prefix": "https://ss3.4sqi.net/img/categories_v2/travel/busstation_", "suffix": ".png"}, "primary": true}], "referralId": "v-1572923453", "hasPerk": false}, {"id": "5a8ac8bf67af3a74d3a8f46d", "name": "Austin / Iowa Bus Stop", "location": {"crossStreet": "Austin / Iowa", "lat": 41.896387, "lng": -87.775225, "labeledLatLngs": [{"label": "display", "lat": 41.896387, "lng": -87.775225}], "postalCode": "60302", "cc": "US", "city": "Oak Park", "state": "IL", "country": "United States", "formattedAddress": ["Austin / Iowa", "Oak Park, IL 60302", "United States"]}, "categories": [{"id": "52f2ab2ebcbc57f1066b8b4f", "name": "Bus Stop", "pluralName": "Bus Stops", "shortName": "Bus Stop", "icon": {"prefix": "https://ss3.4sqi.net/img/categories_v2/travel/busstation_", "suffix": ".png"}, "primary": true}], "referralId": "v-1572923453", "hasPerk": false}, {"id": "5da0715eaa2e470008f39356", "name": "Cta - Harlem/Randolph", "location": {"lat": 41.883172, "lng": -87.805093, "labeledLatLngs": [{"label": "display", "lat": 41.883172, "lng": -87.805093}], "postalCode": "60130", "cc": "US", "city": "Forest Park", "state": "IL", "country": "United States", "formattedAddress": ["Forest Park, IL 60130", "United States"]}, "categories": [{"id": "52f2ab2ebcbc57f1066b8b4f", "name": "Bus Stop", "pluralName": "Bus Stops", "shortName": "Bus Stop", "icon": {"prefix": "https://ss3.4sqi.net/img/categories_v2/travel/busstation_", "suffix": ".png"}, "primary": true}], "referralId": "v-1572923453", "hasPerk": false}, {"id": "548c637f498eecad73030c1f", "name": "Higgins & Major", "location": {"address": "5700 W Higgins", "crossStreet": "Higgins & Major", "lat": 41.97123347757125, "lng": -87.77109887433387, "labeledLatLngs": [{"label": "display", "lat": 41.97123347757125, "lng": -87.77109887433387}], "postalCode": "60630", "cc": "US", "city": "Chicago", "state": "IL", "country": "United States", "formattedAddress": ["5700 W Higgins (Higgins & Major)", "Chicago, IL 60630", "United States"]}, "categories": [{"id": "52f2ab2ebcbc57f1066b8b4f", "name": "Bus Stop", "pluralName": "Bus Stops", "shortName": "Bus Stop", "icon": {"prefix": "https://ss3.4sqi.net/img/categories_v2/travel/busstation_", "suffix": ".png"}, "primary": true}], "referralId": "v-1572923453", "hasPerk": false}, {"id": "53506244498ea10a3b6c0f2b", "name": "CTA - Harlem Blue Line Station Bus Terminal", "location": {"lat": 41.982306, "lng": -87.808076, "labeledLatLngs": [{"label": "display", "lat": 41.982306, "lng": -87.808076}], "postalCode": "60656", "cc": "US", "city": "Chicago", "state": "IL", "country": "United States", "formattedAddress": ["Chicago, IL 60656", "United States"]}, "categories": [{"id": "4bf58dd8d48988d1fe931735", "name": "Bus Station", "pluralName": "Bus Stations", "shortName": "Bus Station", "icon": {"prefix": "https://ss3.4sqi.net/img/categories_v2/travel/busstation_", "suffix": ".png"}, "primary": true}], "referralId": "v-1572923453", "hasPerk": false}, {"id": "50991df8e4b09487f9d7581e", "name": "CTA Bus Stop #1421", "location": {"address": "Wacker Drive", "crossStreet": "Michigan Avenue", "lat": 41.88848555741511, "lng": -87.6248012470162, "labeledLatLngs": [{"label": "display", "lat": 41.88848555741511, "lng": -87.6248012470162}], "postalCode": "60601", "cc": "US", "city": "Chicago", "state": "IL", "country": "United States", "formattedAddress": ["Wacker Drive (Michigan Avenue)", "Chicago, IL 60601", "United States"]}, "categories": [{"id": "52f2ab2ebcbc57f1066b8b4f", "name": "Bus Stop", "pluralName": "Bus Stops", "shortName": "Bus Stop", "icon": {"prefix": "https://ss3.4sqi.net/img/categories_v2/travel/busstation_", "suffix": ".png"}, "primary": true}], "referralId": "v-1572923453", "hasPerk": false}, {"id": "5abc2ad712c8f021e384a234", "name": "CTA Bus Stop #14095", "location": {"lat": 42.017513, "lng": -87.67309, "labeledLatLngs": [{"label": "display", "lat": 42.017513, "lng": -87.67309}], "postalCode": "60626", "cc": "US", "neighborhood": "Rogers Park", "city": "Chicago", "state": "IL", "country": "United States", "formattedAddress": ["Chicago, IL 60626", "United States"]}, "categories": [{"id": "52f2ab2ebcbc57f1066b8b4f", "name": "Bus Stop", "pluralName": "Bus Stops", "shortName": "Bus Stop", "icon": {"prefix": "https://ss3.4sqi.net/img/categories_v2/travel/busstation_", "suffix": ".png"}, "primary": true}], "referralId": "v-1572923453", "hasPerk": false}, {"id": "5c26b67065211f002cb26b93", "name": "CTA Bus Stop 1589", "location": {"address": "910 S Michigan Ave", "crossStreet": "9th Street", "lat": 41.869946, "lng": -87.62443, "labeledLatLngs": [{"label": "display", "lat": 41.869946, "lng": -87.62443}], "postalCode": "60605", "cc": "US", "neighborhood": "South Loop", "city": "Chicago", "state": "IL", "country": "United States", "formattedAddress": ["910 S Michigan Ave (9th Street)", "Chicago, IL 60605", "United States"]}, "categories": [{"id": "52f2ab2ebcbc57f1066b8b4f", "name": "Bus Stop", "pluralName": "Bus Stops", "shortName": "Bus Stop", "icon": {"prefix": "https://ss3.4sqi.net/img/categories_v2/travel/busstation_", "suffix": ".png"}, "primary": true}], "referralId": "v-1572923453", "hasPerk": false}, {"id": "5345fd07498e9d6d1e258e75", "name": "CTA Bus Stop 17516 (Eastbound)", "location": {"lat": 41.867218017578125, "lng": -87.63219451904297, "labeledLatLngs": [{"label": "display", "lat": 41.867218017578125, "lng": -87.63219451904297}], "cc": "US", "city": "Chicago", "state": "IL", "country": "United States", "formattedAddress": ["Chicago, IL", "United States"]}, "categories": [{"id": "52f2ab2ebcbc57f1066b8b4f", "name": "Bus Stop", "pluralName": "Bus Stops", "shortName": "Bus Stop", "icon": {"prefix": "https://ss3.4sqi.net/img/categories_v2/travel/busstation_", "suffix": ".png"}, "primary": true}], "referralId": "v-1572923453", "hasPerk": false}, {"id": "57f3e1f5498e3153a7d9edd8", "name": "CTA Bus Stop 8354", "location": {"address": "2801 S Western (Northbound)", "crossStreet": "28th Street", "lat": 41.841034211212545, "lng": -87.68480502339231, "labeledLatLngs": [{"label": "display", "lat": 41.841034211212545, "lng": -87.68480502339231}], "postalCode": "60608", "cc": "US", "city": "Chicago", "state": "IL", "country": "United States", "formattedAddress": ["2801 S Western (Northbound) (28th Street)", "Chicago, IL 60608", "United States"]}, "categories": [{"id": "52f2ab2ebcbc57f1066b8b4f", "name": "Bus Stop", "pluralName": "Bus Stops", "shortName": "Bus Stop", "icon": {"prefix": "https://ss3.4sqi.net/img/categories_v2/travel/busstation_", "suffix": ".png"}, "primary": true}], "referralId": "v-1572923453", "hasPerk": false}], "confident": false, "geocode": {"what": "", "where": "chicago", "feature": {"cc": "US", "name": "Chicago", "displayName": "Chicago, IL, United States", "matchedName": "Chicago, IL, United States", "highlightedName": "<b>Chicago</b>, IL, United States", "woeType": 7, "slug": "chicago-illinois", "id": "geonameid:4887398", "longId": "72057594042815334", "geometry": {"center": {"lat": 41.85003, "lng": -87.65005}, "bounds": {"ne": {"lat": 42.023134999999996, "lng": -87.52366099999999}, "sw": {"lat": 41.644286, "lng": -87.940101}}}}, "parents": []}}, "\u001b[a\u001b[bchicago52f2ab2ebcbc57f1066b8b4f": {}, "chicagp52f2ab2ebcbc57f1066b8b4f": {}, "chicago4bf58dd8d48988d130951735": {"venues": [{"id": "4bacb559f964a520af053be3", "name": "Chicago Water Taxi (Madison)", "location": {"address": "Madison Street", "crossStreet": "at Wacker Drive", "lat": 41.88222187001849, "lng": -87.63830031169691, "labeledLatLngs": [{"label": "display", "lat": 41.88222187001849, "lng": -87.63830031169691}], "postalCode": "60661", "cc": "US", "city": "Chicago", "state": "IL", "country": "United States", "formattedAddress": ["Madison Street (at Wacker Drive)", "Chicago, IL 60661", "United States"]}, "categories": [{"id": "4bf58dd8d48988d12d951735", "name": "Boat or Ferry", "pluralName": "Boats or Ferries", "shortName": "Boat / Ferry", "icon": {"prefix": "https://ss3.4sqi.net/img/categories_v2/travel/boat_", "suffix": ".png"}, "primary": true}], "referralId": "v-1572925999", "hasPerk": false}, {"id": "4dfd06b062e1a52ce912f64d", "name": "Shoreline Water Taxi", "location": {"address": "at Museum Campus", "crossStreet": "Lake Michigan", "lat": 41.868594014870716, "lng": -87.61555015961916, "labeledLatLngs": [{"label": "display", "lat": 41.868594014870716, "lng": -87.61555015961916}], "postalCode": "60605", "cc": "US", "city": "Chicago", "state": "IL", "country": "United States", "formattedAddress": ["at Museum Campus (Lake Michigan)", "Chicago, IL 60605", "United States"]}, "categories": [{"id": "4bf58dd8d48988d12d951735", "name": "Boat or Ferry", "pluralName": "Boats or Ferries", "shortName": "Boat / Ferry", "icon": {"prefix": "https://ss3.4sqi.net/img/categories_v2/travel/boat_", "suffix": ".png"}, "primary": true}], "referralId": "v-1572925999", "hasPerk": false}, {"id": "4b7eba7af964a52071fb2fe3", "name": "Chicago Water Taxi (Michigan)", "location": {"address": "400 N Michigan Ave", "lat": 41.889150395342845, "lng": -87.625416131478, "labeledLatLngs": [{"label": "display", "lat": 41.889150395342845, "lng": -87.625416131478}], "postalCode": "60611", "cc": "US", "city": "Chicago", "state": "IL", "country": "United States", "formattedAddress": ["400 N Michigan Ave", "Chicago, IL 60611", "United States"]}, "categories": [{"id": "4bf58dd8d48988d12d951735", "name": "Boat or Ferry", "pluralName": "Boats or Ferries", "shortName": "Boat / Ferry", "icon": {"prefix": "https://ss3.4sqi.net/img/categories_v2/travel/boat_", "suffix": ".png"}, "primary": true}], "referralId": "v-1572925999", "hasPerk": false}], "confident": false, "geocode": {"what": "", "where": "chicago", "feature": {"cc": "US", "name": "Chicago", "displayName": "Chicago, IL, United States", "matchedName": "Chicago, IL, United States", "highlightedName": "<b>Chicago</b>, IL, United States", "woeType": 7, "slug": "chicago-illinois", "id": "geonameid:4887398", "longId": "72057594042815334", "geometry": {"center": {"lat": 41.85003, "lng": -87.65005}, "bounds": {"ne": {"lat": 42.023134999999996, "lng": -87.52366099999999}, "sw": {"lat": 41.644286, "lng": -87.940101}}}}, "parents": []}}, "chicago4bf58dd8d48988d17b941735": {"venues": [{"id": "4a615533f964a5204fc21fe3", "name": "Brookfield Zoo", "location": {"address": "3300 Golf Rd", "crossStreet": "at 31st St", "lat": 41.83411189644921, "lng": -87.83376127817473, "postalCode": "60513", "cc": "US", "city": "Brookfield", "state": "IL", "country": "United States", "formattedAddress": ["3300 Golf Rd (at 31st St)", "Brookfield, IL 60513", "United States"]}, "categories": [{"id": "4bf58dd8d48988d17b941735", "name": "Zoo", "pluralName": "Zoos", "shortName": "Zoo", "icon": {"prefix": "https://ss3.4sqi.net/img/categories_v2/arts_entertainment/zoo_", "suffix": ".png"}, "primary": true}], "referralId": "v-1572926270", "hasPerk": false}, {"id": "5830a26edebdf603ff21adc7", "name": "Pritzker Penguin Cove", "location": {"lat": 41.92318520421831, "lng": -87.63349965210423, "labeledLatLngs": [{"label": "display", "lat": 41.92318520421831, "lng": -87.63349965210423}], "cc": "US", "city": "Chicago", "state": "IL", "country": "United States", "formattedAddress": ["Chicago, IL", "United States"]}, "categories": [{"id": "58daa1558bbb0b01f18ec1fd", "name": "Zoo Exhibit", "pluralName": "Zoo Exhibits", "shortName": "Zoo Exhibit", "icon": {"prefix": "https://ss3.4sqi.net/img/categories_v2/arts_entertainment/zoo_", "suffix": ".png"}, "primary": true}], "referralId": "v-1572926270", "hasPerk": false}, {"id": "45840a3af964a520903f1fe3", "name": "Lincoln Park Zoo", "location": {"address": "2001 N Clark St", "crossStreet": "btwn Fullerton Pkwy & LaSalle Dr", "lat": 41.92175217890461, "lng": -87.63348604144122, "postalCode": "60614", "cc": "US", "city": "Chicago", "state": "IL", "country": "United States", "formattedAddress": ["2001 N Clark St (btwn Fullerton Pkwy & LaSalle Dr)", "Chicago, IL 60614", "United States"]}, "categories": [{"id": "4bf58dd8d48988d17b941735", "name": "Zoo", "pluralName": "Zoos", "shortName": "Zoo", "icon": {"prefix": "https://ss3.4sqi.net/img/categories_v2/arts_entertainment/zoo_", "suffix": ".png"}, "primary": true}], "venuePage": {"id": "137847862"}, "referralId": "v-1572926270", "hasPerk": false}, {"id": "4d1e8ea15c4ca1cddbe1913d", "name": "The Carousel", "location": {"address": "Brookfield Zoo", "crossStreet": "3300 Golf Road", "lat": 41.83418169567063, "lng": -87.83348708127853, "labeledLatLngs": [{"label": "display", "lat": 41.83418169567063, "lng": -87.83348708127853}], "postalCode": "60514", "cc": "US", "city": "Brookfield", "state": "IL", "country": "United States", "formattedAddress": ["Brookfield Zoo (3300 Golf Road)", "Brookfield, IL 60514", "United States"]}, "categories": [{"id": "5109983191d435c0d71c2bb1", "name": "Theme Park Ride / Attraction", "pluralName": "Theme Park Rides/Attractions", "shortName": "Theme Park", "icon": {"prefix": "https://ss3.4sqi.net/img/categories_v2/arts_entertainment/themepark_", "suffix": ".png"}, "primary": true}], "referralId": "v-1572926270", "hasPerk": false}, {"id": "4bf54c79cad2c92828d99c99", "name": "Hamill Family Play Zoo", "location": {"address": "Brookfield Zoo", "crossStreet": "at 31st St", "lat": 41.82993248858185, "lng": -87.83301677246175, "labeledLatLngs": [{"label": "display", "lat": 41.82993248858185, "lng": -87.83301677246175}], "postalCode": "60513", "cc": "US", "city": "Brookfield", "state": "IL", "country": "United States", "formattedAddress": ["Brookfield Zoo (at 31st St)", "Brookfield, IL 60513", "United States"]}, "categories": [{"id": "56aa371be4b08b9a8d573532", "name": "Exhibit", "pluralName": "Exhibits", "shortName": "Exhibit", "icon": {"prefix": "https://ss3.4sqi.net/img/categories_v2/arts_entertainment/default_", "suffix": ".png"}, "primary": true}], "referralId": "v-1572926270", "hasPerk": false}, {"id": "4bb8c4db314e9521e1ba489d", "name": "Pritzker Family Children's Zoo", "location": {"address": "Lincoln Park Zoo", "lat": 41.92130031718759, "lng": -87.63503891388585, "labeledLatLngs": [{"label": "display", "lat": 41.92130031718759, "lng": -87.63503891388585}], "postalCode": "60614", "cc": "US", "city": "Chicago", "state": "IL", "country": "United States", "formattedAddress": ["Lincoln Park Zoo", "Chicago, IL 60614", "United States"]}, "categories": [{"id": "58daa1558bbb0b01f18ec1fd", "name": "Zoo Exhibit", "pluralName": "Zoo Exhibits", "shortName": "Zoo Exhibit", "icon": {"prefix": "https://ss3.4sqi.net/img/categories_v2/arts_entertainment/zoo_", "suffix": ".png"}, "primary": true}], "referralId": "v-1572926270", "hasPerk": false}, {"id": "4d3492e88250f04d45b306e1", "name": "The Swamp", "location": {"address": "Brookfield Zoo", "lat": 41.83166352497425, "lng": -87.83417957685276, "labeledLatLngs": [{"label": "display", "lat": 41.83166352497425, "lng": -87.83417957685276}], "postalCode": "60513", "cc": "US", "city": "Brookfield", "state": "IL", "country": "United States", "formattedAddress": ["Brookfield Zoo", "Brookfield, IL 60513", "United States"]}, "categories": [{"id": "4bf58dd8d48988d17b941735", "name": "Zoo", "pluralName": "Zoos", "shortName": "Zoo", "icon": {"prefix": "https://ss3.4sqi.net/img/categories_v2/arts_entertainment/zoo_", "suffix": ".png"}, "primary": true}], "referralId": "v-1572926270", "hasPerk": false}, {"id": "4bae328ff964a520fd903be3", "name": "Helen Brach Primate House", "location": {"address": "2001 N Clark St", "crossStreet": "Lincoln Park Zoo", "lat": 41.92052177098506, "lng": -87.63263307039456, "labeledLatLngs": [{"label": "display", "lat": 41.92052177098506, "lng": -87.63263307039456}], "postalCode": "60614", "cc": "US", "city": "Chicago", "state": "IL", "country": "United States", "formattedAddress": ["2001 N Clark St (Lincoln Park Zoo)", "Chicago, IL 60614", "United States"]}, "categories": [{"id": "58daa1558bbb0b01f18ec1fd", "name": "Zoo Exhibit", "pluralName": "Zoo Exhibits", "shortName": "Zoo Exhibit", "icon": {"prefix": "https://ss3.4sqi.net/img/categories_v2/arts_entertainment/zoo_", "suffix": ".png"}, "primary": true}], "referralId": "v-1572926270", "hasPerk": false}, {"id": "4e5a65cfc65bcd7cbe40e569", "name": "South Parking Lot", "location": {"address": "Brookfield Zoo", "lat": 41.830090609313665, "lng": -87.83262413488502, "labeledLatLngs": [{"label": "display", "lat": 41.830090609313665, "lng": -87.83262413488502}], "postalCode": "60513-1095", "cc": "US", "city": "Brookfield", "state": "IL", "country": "United States", "formattedAddress": ["Brookfield Zoo", "Brookfield, IL 60513-1095", "United States"]}, "categories": [{"id": "4c38df4de52ce0d596b336e1", "name": "Parking", "pluralName": "Parking", "shortName": "Parking", "icon": {"prefix": "https://ss3.4sqi.net/img/categories_v2/building/parking_", "suffix": ".png"}, "primary": true}], "referralId": "v-1572926270", "hasPerk": false}, {"id": "4bb8b727b35776b0f222c901", "name": "Regenstein African Journey", "location": {"address": "Lincoln Park Zoo", "lat": 41.922887714899744, "lng": -87.63397088492638, "labeledLatLngs": [{"label": "display", "lat": 41.922887714899744, "lng": -87.63397088492638}], "postalCode": "60614", "cc": "US", "city": "Chicago", "state": "IL", "country": "United States", "formattedAddress": ["Lincoln Park Zoo", "Chicago, IL 60614", "United States"]}, "categories": [{"id": "58daa1558bbb0b01f18ec1fd", "name": "Zoo Exhibit", "pluralName": "Zoo Exhibits", "shortName": "Zoo Exhibit", "icon": {"prefix": "https://ss3.4sqi.net/img/categories_v2/arts_entertainment/zoo_", "suffix": ".png"}, "primary": true}], "referralId": "v-1572926270", "hasPerk": false}, {"id": "4bae380ef964a520e6933be3", "name": "Regenstein Center for African Apes", "location": {"address": "Lincoln Park Zoo", "lat": 41.92012298631072, "lng": -87.63217621431924, "labeledLatLngs": [{"label": "display", "lat": 41.92012298631072, "lng": -87.63217621431924}], "postalCode": "60614", "cc": "US", "city": "Chicago", "state": "IL", "country": "United States", "formattedAddress": ["Lincoln Park Zoo", "Chicago, IL 60614", "United States"]}, "categories": [{"id": "58daa1558bbb0b01f18ec1fd", "name": "Zoo Exhibit", "pluralName": "Zoo Exhibits", "shortName": "Zoo Exhibit", "icon": {"prefix": "https://ss3.4sqi.net/img/categories_v2/arts_entertainment/zoo_", "suffix": ".png"}, "primary": true}], "referralId": "v-1572926270", "hasPerk": false}, {"id": "4bb8c90d314e95214cc0489d", "name": "Regenstein Small Mammal & Reptile House", "location": {"address": "Lincoln Park Zoo", "lat": 41.920779253651226, "lng": -87.63423301972827, "labeledLatLngs": [{"label": "display", "lat": 41.920779253651226, "lng": -87.63423301972827}], "postalCode": "60614", "cc": "US", "city": "Chicago", "state": "IL", "country": "United States", "formattedAddress": ["Lincoln Park Zoo", "Chicago, IL 60614", "United States"]}, "categories": [{"id": "58daa1558bbb0b01f18ec1fd", "name": "Zoo Exhibit", "pluralName": "Zoo Exhibits", "shortName": "Zoo Exhibit", "icon": {"prefix": "https://ss3.4sqi.net/img/categories_v2/arts_entertainment/zoo_", "suffix": ".png"}, "primary": true}], "referralId": "v-1572926270", "hasPerk": false}, {"id": "4c325b8e66e40f470765c68b", "name": "Tropic World", "location": {"address": "Brookfield Zoo", "crossStreet": "at 31st St", "lat": 41.83212546424272, "lng": -87.83493065723046, "labeledLatLngs": [{"label": "display", "lat": 41.83212546424272, "lng": -87.83493065723046}], "postalCode": "60513", "cc": "US", "city": "Brookfield", "state": "IL", "country": "United States", "formattedAddress": ["Brookfield Zoo (at 31st St)", "Brookfield, IL 60513", "United States"]}, "categories": [{"id": "56aa371be4b08b9a8d573532", "name": "Exhibit", "pluralName": "Exhibits", "shortName": "Exhibit", "icon": {"prefix": "https://ss3.4sqi.net/img/categories_v2/arts_entertainment/default_", "suffix": ".png"}, "primary": true}], "referralId": "v-1572926270", "hasPerk": false}, {"id": "58d5809a04f4d77d2572d732", "name": "Regenstein Macaque Forest", "location": {"lat": 41.922310312939324, "lng": -87.63417686574847, "labeledLatLngs": [{"label": "display", "lat": 41.922310312939324, "lng": -87.63417686574847}], "postalCode": "60614", "cc": "US", "city": "Chicago", "state": "IL", "country": "United States", "formattedAddress": ["Chicago, IL 60614", "United States"]}, "categories": [{"id": "58daa1558bbb0b01f18ec1fd", "name": "Zoo Exhibit", "pluralName": "Zoo Exhibits", "shortName": "Zoo Exhibit", "icon": {"prefix": "https://ss3.4sqi.net/img/categories_v2/arts_entertainment/zoo_", "suffix": ".png"}, "primary": true}], "referralId": "v-1572926270", "hasPerk": false}, {"id": "572cebeecd10a513b9f68087", "name": "McCormick Bird House", "location": {"lat": 41.92260797981844, "lng": -87.63355593097339, "labeledLatLngs": [{"label": "display", "lat": 41.92260797981844, "lng": -87.63355593097339}], "cc": "US", "city": "Chicago", "state": "IL", "country": "United States", "formattedAddress": ["Chicago, IL", "United States"]}, "categories": [{"id": "58daa1558bbb0b01f18ec1fd", "name": "Zoo Exhibit", "pluralName": "Zoo Exhibits", "shortName": "Zoo Exhibit", "icon": {"prefix": "https://ss3.4sqi.net/img/categories_v2/arts_entertainment/zoo_", "suffix": ".png"}, "primary": true}], "referralId": "v-1572926270", "hasPerk": false}, {"id": "4c476d8a417b20a14493dda9", "name": "Great Bear Wilderness", "location": {"address": "Brookfield Zoo", "crossStreet": "at 31st St", "lat": 41.832240207348846, "lng": -87.83772840065322, "labeledLatLngs": [{"label": "display", "lat": 41.832240207348846, "lng": -87.83772840065322}], "postalCode": "60513", "cc": "US", "city": "Brookfield", "state": "IL", "country": "United States", "formattedAddress": ["Brookfield Zoo (at 31st St)", "Brookfield, IL 60513", "United States"]}, "categories": [{"id": "56aa371be4b08b9a8d573532", "name": "Exhibit", "pluralName": "Exhibits", "shortName": "Exhibit", "icon": {"prefix": "https://ss3.4sqi.net/img/categories_v2/arts_entertainment/default_", "suffix": ".png"}, "primary": true}], "referralId": "v-1572926270", "hasPerk": false}, {"id": "4c3256ea213c2d7f2b4f355d", "name": "The Living Coast", "location": {"address": "Brookfield Zoo", "crossStreet": "at 31st St", "lat": 41.831393612416164, "lng": -87.83810972789358, "labeledLatLngs": [{"label": "display", "lat": 41.831393612416164, "lng": -87.83810972789358}], "postalCode": "60513", "cc": "US", "city": "Brookfield", "state": "IL", "country": "United States", "formattedAddress": ["Brookfield Zoo (at 31st St)", "Brookfield, IL 60513", "United States"]}, "categories": [{"id": "58daa1558bbb0b01f18ec1fd", "name": "Zoo Exhibit", "pluralName": "Zoo Exhibits", "shortName": "Zoo Exhibit", "icon": {"prefix": "https://ss3.4sqi.net/img/categories_v2/arts_entertainment/zoo_", "suffix": ".png"}, "primary": true}], "referralId": "v-1572926270", "hasPerk": false}, {"id": "4df3daf0483bdb5e1375dffb", "name": "Habitat Africa", "location": {"address": "3300 Golf Rd", "crossStreet": "at 31st St", "lat": 41.83367623984126, "lng": -87.83766189309677, "labeledLatLngs": [{"label": "display", "lat": 41.83367623984126, "lng": -87.83766189309677}], "postalCode": "60513", "cc": "US", "city": "Brookfield", "state": "IL", "country": "United States", "formattedAddress": ["3300 Golf Rd (at 31st St)", "Brookfield, IL 60513", "United States"]}, "categories": [{"id": "56aa371be4b08b9a8d573532", "name": "Exhibit", "pluralName": "Exhibits", "shortName": "Exhibit", "icon": {"prefix": "https://ss3.4sqi.net/img/categories_v2/arts_entertainment/default_", "suffix": ".png"}, "primary": true}], "referralId": "v-1572926270", "hasPerk": false}, {"id": "4e8f4eb729c2117fa35cf869", "name": "Kovler Seal Pool", "location": {"address": "Lincoln Park Zoo, 2001 N Clark St, Chicago, IL 60614", "lat": 41.92164805164105, "lng": -87.63432319165403, "labeledLatLngs": [{"label": "display", "lat": 41.92164805164105, "lng": -87.63432319165403}], "postalCode": "60614", "cc": "US", "city": "Chicago", "state": "IL", "country": "United States", "formattedAddress": ["Lincoln Park Zoo, 2001 N Clark St, Chicago, IL 60614", "Chicago, IL 60614", "United States"]}, "categories": [{"id": "58daa1558bbb0b01f18ec1fd", "name": "Zoo Exhibit", "pluralName": "Zoo Exhibits", "shortName": "Zoo Exhibit", "icon": {"prefix": "https://ss3.4sqi.net/img/categories_v2/arts_entertainment/zoo_", "suffix": ".png"}, "primary": true}], "referralId": "v-1572926270", "hasPerk": false}, {"id": "4bae2d72f964a5201b8e3be3", "name": "Kovler Lion House", "location": {"address": "2001 N Clark St", "crossStreet": "Lincoln Park Zoo", "lat": 41.921385501114514, "lng": -87.6332933661666, "labeledLatLngs": [{"label": "display", "lat": 41.921385501114514, "lng": -87.6332933661666}], "postalCode": "60614", "cc": "US", "neighborhood": "Lincoln Park", "city": "Chicago", "state": "IL", "country": "United States", "formattedAddress": ["2001 N Clark St (Lincoln Park Zoo)", "Chicago, IL 60614", "United States"]}, "categories": [{"id": "58daa1558bbb0b01f18ec1fd", "name": "Zoo Exhibit", "pluralName": "Zoo Exhibits", "shortName": "Zoo Exhibit", "icon": {"prefix": "https://ss3.4sqi.net/img/categories_v2/arts_entertainment/zoo_", "suffix": ".png"}, "primary": true}], "referralId": "v-1572926270", "hasPerk": false}, {"id": "4bae2ebaf964a520de8e3be3", "name": "Kovler Sea Lion House", "location": {"address": "2001 N Clark St", "crossStreet": "at Lincoln Park Zoo", "lat": 41.92158042016763, "lng": -87.63429142590039, "labeledLatLngs": [{"label": "display", "lat": 41.92158042016763, "lng": -87.63429142590039}], "postalCode": "60614", "cc": "US", "neighborhood": "Lincoln Park", "city": "Chicago", "state": "IL", "country": "United States", "formattedAddress": ["2001 N Clark St (at Lincoln Park Zoo)", "Chicago, IL 60614", "United States"]}, "categories": [{"id": "58daa1558bbb0b01f18ec1fd", "name": "Zoo Exhibit", "pluralName": "Zoo Exhibits", "shortName": "Zoo Exhibit", "icon": {"prefix": "https://ss3.4sqi.net/img/categories_v2/arts_entertainment/zoo_", "suffix": ".png"}, "primary": true}], "referralId": "v-1572926270", "hasPerk": false}, {"id": "4c38c5cb1e06d13a3e5f783e", "name": "Polar Bear Plaza", "location": {"lat": 41.923927856099695, "lng": -87.63384576943147, "labeledLatLngs": [{"label": "display", "lat": 41.923927856099695, "lng": -87.63384576943147}], "postalCode": "60614", "cc": "US", "city": "Chicago", "state": "IL", "country": "United States", "formattedAddress": ["Chicago, IL 60614", "United States"]}, "categories": [{"id": "58daa1558bbb0b01f18ec1fd", "name": "Zoo Exhibit", "pluralName": "Zoo Exhibits", "shortName": "Zoo Exhibit", "icon": {"prefix": "https://ss3.4sqi.net/img/categories_v2/arts_entertainment/zoo_", "suffix": ".png"}, "primary": true}], "referralId": "v-1572926270", "hasPerk": false}, {"id": "504b85b3e4b037e085775ac1", "name": "The Flamingo Island", "location": {"lat": 41.92049210732006, "lng": -87.633423569541, "labeledLatLngs": [{"label": "display", "lat": 41.92049210732006, "lng": -87.633423569541}], "postalCode": "60614", "cc": "US", "city": "Chicago", "state": "IL", "country": "United States", "formattedAddress": ["Chicago, IL 60614", "United States"]}, "categories": [{"id": "58daa1558bbb0b01f18ec1fd", "name": "Zoo Exhibit", "pluralName": "Zoo Exhibits", "shortName": "Zoo Exhibit", "icon": {"prefix": "https://ss3.4sqi.net/img/categories_v2/arts_entertainment/zoo_", "suffix": ".png"}, "primary": true}], "referralId": "v-1572926270", "hasPerk": false}, {"id": "58273ec3cb54573454e091a9", "name": "Walter Family Arctic Tundra", "location": {"lat": 41.92391158805432, "lng": -87.63391219915412, "labeledLatLngs": [{"label": "display", "lat": 41.92391158805432, "lng": -87.63391219915412}], "cc": "US", "city": "Chicago", "state": "IL", "country": "United States", "formattedAddress": ["Chicago, IL", "United States"]}, "categories": [{"id": "58daa1558bbb0b01f18ec1fd", "name": "Zoo Exhibit", "pluralName": "Zoo Exhibits", "shortName": "Zoo Exhibit", "icon": {"prefix": "https://ss3.4sqi.net/img/categories_v2/arts_entertainment/zoo_", "suffix": ".png"}, "primary": true}], "referralId": "v-1572926270", "hasPerk": false}, {"id": "4e11ffe3b61c637b97b258b7", "name": "Grevy's Zebra", "location": {"address": "Lincoln Park Zoo", "lat": 41.92062586107507, "lng": -87.63327881304254, "labeledLatLngs": [{"label": "display", "lat": 41.92062586107507, "lng": -87.63327881304254}], "postalCode": "60614", "cc": "US", "city": "Chicago", "state": "IL", "country": "United States", "formattedAddress": ["Lincoln Park Zoo", "Chicago, IL 60614", "United States"]}, "categories": [{"id": "58daa1558bbb0b01f18ec1fd", "name": "Zoo Exhibit", "pluralName": "Zoo Exhibits", "shortName": "Zoo Exhibit", "icon": {"prefix": "https://ss3.4sqi.net/img/categories_v2/arts_entertainment/zoo_", "suffix": ".png"}, "primary": true}], "referralId": "v-1572926270", "hasPerk": false}], "confident": false, "geocode": {"what": "", "where": "chicago", "feature": {"cc": "US", "name": "Chicago", "displayName": "Chicago, IL, United States", "matchedName": "Chicago, IL, United States", "highlightedName": "<b>Chicago</b>, IL, United States", "woeType": 7, "slug": "chicago-illinois", "id": "geonameid:4887398", "longId": "72057594042815334", "geometry": {"center": {"lat": 41.85003, "lng": -87.65005}, "bounds": {"ne": {"lat": 42.023134999999996, "lng": -87.52366099999999}, "sw": {"lat": 41.644286, "lng": -87.940101}}}}, "parents": []}}, "cchicago52f2ab2ebcbc57f1066b8b4f": {}, "chicag52f2ab2ebcbc57f1066b8b4f": {}, "ann arbor52f2ab2ebcbc57f1066b8b4f": {"venues": [{"id": "5a732606f62e0932a5d71a49", "name": "AATA Bus Stop @ Washington/Fifth", "location": {"lat": 42.280351, "lng": -83.74496, "labeledLatLngs": [{"label": "display", "lat": 42.280351, "lng": -83.74496}], "postalCode": "48104", "cc": "US", "city": "Ann Arbor", "state": "MI", "country": "United States", "formattedAddress": ["Ann Arbor, MI 48104", "United States"]}, "categories": [{"id": "52f2ab2ebcbc57f1066b8b4f", "name": "Bus Stop", "pluralName": "Bus Stops", "shortName": "Bus Stop", "icon": {"prefix": "https://ss3.4sqi.net/img/categories_v2/travel/busstation_", "suffix": ".png"}, "primary": true}], "referralId": "v-1572928597", "hasPerk": false}, {"id": "5ac82000f0b4904f398f1fcd", "name": "Dtw Rental Car Shuttles", "location": {"lat": 42.206805, "lng": -83.359125, "labeledLatLngs": [{"label": "display", "lat": 42.206805, "lng": -83.359125}], "postalCode": "48242", "cc": "US", "city": "Romulus", "state": "MI", "country": "United States", "formattedAddress": ["Romulus, MI 48242", "United States"]}, "categories": [{"id": "52f2ab2ebcbc57f1066b8b4f", "name": "Bus Stop", "pluralName": "Bus Stops", "shortName": "Bus Stop", "icon": {"prefix": "https://ss3.4sqi.net/img/categories_v2/travel/busstation_", "suffix": ".png"}, "primary": true}], "referralId": "v-1572928597", "hasPerk": false}, {"id": "5a01c0db58aa7f251cd7fce8", "name": "Megabus Stop", "location": {"lat": 42.238525, "lng": -83.743769, "labeledLatLngs": [{"label": "display", "lat": 42.238525, "lng": -83.743769}], "postalCode": "48108", "cc": "US", "city": "Ann Arbor", "state": "MI", "country": "United States", "formattedAddress": ["Ann Arbor, MI 48108", "United States"]}, "categories": [{"id": "52f2ab2ebcbc57f1066b8b4f", "name": "Bus Stop", "pluralName": "Bus Stops", "shortName": "Bus Stop", "icon": {"prefix": "https://ss3.4sqi.net/img/categories_v2/travel/busstation_", "suffix": ".png"}, "primary": true}], "referralId": "v-1572928597", "hasPerk": false}, {"id": "581a4a1b5c3b5845459d843b", "name": "Tha Bus Stop", "location": {"lat": 42.38798650889962, "lng": -83.35600655053884, "labeledLatLngs": [{"label": "display", "lat": 42.38798650889962, "lng": -83.35600655053884}], "cc": "US", "city": "Livonia", "state": "MI", "country": "United States", "formattedAddress": ["Livonia, MI", "United States"]}, "categories": [{"id": "52f2ab2ebcbc57f1066b8b4f", "name": "Bus Stop", "pluralName": "Bus Stops", "shortName": "Bus Stop", "icon": {"prefix": "https://ss3.4sqi.net/img/categories_v2/travel/busstation_", "suffix": ".png"}, "primary": true}], "referralId": "v-1572928597", "hasPerk": false}, {"id": "5b92cbc4180b91002c9e9664", "name": "Asher Bus Stop", "location": {"lat": 42.485104, "lng": -83.514405, "labeledLatLngs": [{"label": "display", "lat": 42.485104, "lng": -83.514405}], "postalCode": "48374", "cc": "US", "city": "Novi", "state": "MI", "country": "United States", "formattedAddress": ["Novi, MI 48374", "United States"]}, "categories": [{"id": "52f2ab2ebcbc57f1066b8b4f", "name": "Bus Stop", "pluralName": "Bus Stops", "shortName": "Bus Stop", "icon": {"prefix": "https://ss3.4sqi.net/img/categories_v2/travel/busstation_", "suffix": ".png"}, "primary": true}], "referralId": "v-1572928597", "hasPerk": false}, {"id": "5b2179a4ee7120002cad3b1b", "name": "Employee Shuttle Stop-North Terminal", "location": {"lat": 42.224452, "lng": -83.34853, "labeledLatLngs": [{"label": "display", "lat": 42.224452, "lng": -83.34853}], "postalCode": "48242", "cc": "US", "city": "Romulus", "state": "MI", "country": "United States", "formattedAddress": ["Romulus, MI 48242", "United States"]}, "categories": [{"id": "52f2ab2ebcbc57f1066b8b4f", "name": "Bus Stop", "pluralName": "Bus Stops", "shortName": "Bus Stop", "icon": {"prefix": "https://ss3.4sqi.net/img/categories_v2/travel/busstation_", "suffix": ".png"}, "primary": true}], "referralId": "v-1572928597", "hasPerk": false}, {"id": "57d350d9498e0a640c72643b", "name": "Pierpont Bus Stop", "location": {"lat": 42.290455, "lng": -83.71831, "labeledLatLngs": [{"label": "display", "lat": 42.290455, "lng": -83.71831}], "postalCode": "48109", "cc": "US", "city": "Ann Arbor", "state": "MI", "country": "United States", "formattedAddress": ["Ann Arbor, MI 48109", "United States"]}, "categories": [{"id": "52f2ab2ebcbc57f1066b8b4f", "name": "Bus Stop", "pluralName": "Bus Stops", "shortName": "Bus Stop", "icon": {"prefix": "https://ss3.4sqi.net/img/categories_v2/travel/busstation_", "suffix": ".png"}, "primary": true}], "referralId": "v-1572928597", "hasPerk": false}, {"id": "53e8b6c0498e2fc08ba5d45c", "name": "Shuttle to Avis", "location": {"lat": 42.22548536250954, "lng": -83.34758563954145, "labeledLatLngs": [{"label": "display", "lat": 42.22548536250954, "lng": -83.34758563954145}], "cc": "US", "city": "Romulus", "state": "MI", "country": "United States", "formattedAddress": ["Romulus, MI", "United States"]}, "categories": [{"id": "52f2ab2ebcbc57f1066b8b4f", "name": "Bus Stop", "pluralName": "Bus Stops", "shortName": "Bus Stop", "icon": {"prefix": "https://ss3.4sqi.net/img/categories_v2/travel/busstation_", "suffix": ".png"}, "primary": true}], "referralId": "v-1572928597", "hasPerk": false}, {"id": "5583eac5498e7554601f78f9", "name": "Wall Street Parking Structure", "location": {"lat": 42.288355786543505, "lng": -83.73495136530867, "labeledLatLngs": [{"label": "display", "lat": 42.288355786543505, "lng": -83.73495136530867}], "cc": "US", "city": "Ann Arbor", "state": "MI", "country": "United States", "formattedAddress": ["Ann Arbor, MI", "United States"]}, "categories": [{"id": "52f2ab2ebcbc57f1066b8b4f", "name": "Bus Stop", "pluralName": "Bus Stops", "shortName": "Bus Stop", "icon": {"prefix": "https://ss3.4sqi.net/img/categories_v2/travel/busstation_", "suffix": ".png"}, "primary": true}], "referralId": "v-1572928597", "hasPerk": false}, {"id": "58d580afa37d7267a0cd21dc", "name": "The Ride Arrowwood", "location": {"lat": 42.306365, "lng": -83.735119, "labeledLatLngs": [{"label": "display", "lat": 42.306365, "lng": -83.735119}], "postalCode": "48105", "cc": "US", "city": "Ann Arbor", "state": "MI", "country": "United States", "formattedAddress": ["Ann Arbor, MI 48105", "United States"]}, "categories": [{"id": "52f2ab2ebcbc57f1066b8b4f", "name": "Bus Stop", "pluralName": "Bus Stops", "shortName": "Bus Stop", "icon": {"prefix": "https://ss3.4sqi.net/img/categories_v2/travel/busstation_", "suffix": ".png"}, "primary": true}], "referralId": "v-1572928597", "hasPerk": false}, {"id": "4fad36d5e4b027b7362bf5e8", "name": "AirRide: Kensington Court Bus Stop", "location": {"address": "610 Hilton Blvd", "crossStreet": "Kensington Court Hotel", "lat": 42.2391332975523, "lng": -83.74074188706025, "labeledLatLngs": [{"label": "display", "lat": 42.2391332975523, "lng": -83.74074188706025}], "postalCode": "48108", "cc": "US", "city": "Ann Arbor", "state": "MI", "country": "United States", "formattedAddress": ["610 Hilton Blvd (Kensington Court Hotel)", "Ann Arbor, MI 48108", "United States"]}, "categories": [{"id": "52f2ab2ebcbc57f1066b8b4f", "name": "Bus Stop", "pluralName": "Bus Stops", "shortName": "Bus Stop", "icon": {"prefix": "https://ss3.4sqi.net/img/categories_v2/travel/busstation_", "suffix": ".png"}, "primary": true}], "referralId": "v-1572928597", "hasPerk": false}, {"id": "5460ab7b498e6bb7cebc7cf5", "name": "Linne's Lodge Bus Stop", "location": {"lat": 42.156119, "lng": -83.647306, "labeledLatLngs": [{"label": "display", "lat": 42.156119, "lng": -83.647306}], "cc": "US", "state": "Michigan", "country": "United States", "formattedAddress": ["Michigan", "United States"]}, "categories": [{"id": "52f2ab2ebcbc57f1066b8b4f", "name": "Bus Stop", "pluralName": "Bus Stops", "shortName": "Bus Stop", "icon": {"prefix": "https://ss3.4sqi.net/img/categories_v2/travel/busstation_", "suffix": ".png"}, "primary": true}], "referralId": "v-1572928597", "hasPerk": false}, {"id": "51a8a288498e94bd6c68b940", "name": "Enterprise Shuttle Stop", "location": {"lat": 42.206534, "lng": -83.357658, "labeledLatLngs": [{"label": "display", "lat": 42.206534, "lng": -83.357658}], "cc": "US", "city": "Romulus", "state": "MI", "country": "United States", "formattedAddress": ["Romulus, MI", "United States"]}, "categories": [{"id": "52f2ab2ebcbc57f1066b8b4f", "name": "Bus Stop", "pluralName": "Bus Stops", "shortName": "Bus Stop", "icon": {"prefix": "https://ss3.4sqi.net/img/categories_v2/travel/busstation_", "suffix": ".png"}, "primary": true}], "referralId": "v-1572928597", "hasPerk": false}, {"id": "57e52b65498e5914af4214fa", "name": "AATA Bus Stop #31", "location": {"address": "Dexter Rd", "crossStreet": "Glenwood", "lat": 42.288002, "lng": -83.78785, "labeledLatLngs": [{"label": "display", "lat": 42.288002, "lng": -83.78785}], "postalCode": "48103", "cc": "US", "city": "Ann Arbor", "state": "MI", "country": "United States", "formattedAddress": ["Dexter Rd (Glenwood)", "Ann Arbor, MI 48103", "United States"]}, "categories": [{"id": "52f2ab2ebcbc57f1066b8b4f", "name": "Bus Stop", "pluralName": "Bus Stops", "shortName": "Bus Stop", "icon": {"prefix": "https://ss3.4sqi.net/img/categories_v2/travel/busstation_", "suffix": ".png"}, "primary": true}], "referralId": "v-1572928597", "hasPerk": false}, {"id": "598c5603c4df1d322f2ad165", "name": "Aata 6", "location": {"lat": 42.229772, "lng": -83.718143, "labeledLatLngs": [{"label": "display", "lat": 42.229772, "lng": -83.718143}], "postalCode": "48108", "cc": "US", "city": "Pittsfield", "state": "MI", "country": "United States", "formattedAddress": ["Pittsfield, MI 48108", "United States"]}, "categories": [{"id": "52f2ab2ebcbc57f1066b8b4f", "name": "Bus Stop", "pluralName": "Bus Stops", "shortName": "Bus Stop", "icon": {"prefix": "https://ss3.4sqi.net/img/categories_v2/travel/busstation_", "suffix": ".png"}, "primary": true}], "referralId": "v-1572928597", "hasPerk": false}, {"id": "4fb12323e4b0c824b973b685", "name": "AirRide: DTW North Terminal Bus Stop", "location": {"lat": 42.226063110499084, "lng": -83.34655740286364, "labeledLatLngs": [{"label": "display", "lat": 42.226063110499084, "lng": -83.34655740286364}], "postalCode": "48242", "cc": "US", "city": "Detroit", "state": "MI", "country": "United States", "formattedAddress": ["Detroit, MI 48242", "United States"]}, "categories": [{"id": "52f2ab2ebcbc57f1066b8b4f", "name": "Bus Stop", "pluralName": "Bus Stops", "shortName": "Bus Stop", "icon": {"prefix": "https://ss3.4sqi.net/img/categories_v2/travel/busstation_", "suffix": ".png"}, "primary": true}], "referralId": "v-1572928597", "hasPerk": false}, {"id": "59404a662b9844668bb52330", "name": "Bus Stop @Parkwoods & Mulberry Lane", "location": {"lat": 42.435123, "lng": -83.64257, "labeledLatLngs": [{"label": "display", "lat": 42.435123, "lng": -83.64257}], "postalCode": "48178", "cc": "US", "city": "South Lyon", "state": "MI", "country": "United States", "formattedAddress": ["South Lyon, MI 48178", "United States"]}, "categories": [{"id": "52f2ab2ebcbc57f1066b8b4f", "name": "Bus Stop", "pluralName": "Bus Stops", "shortName": "Bus Stop", "icon": {"prefix": "https://ss3.4sqi.net/img/categories_v2/travel/busstation_", "suffix": ".png"}, "primary": true}], "referralId": "v-1572928597", "hasPerk": false}, {"id": "58b043965d6ec6066298a8eb", "name": "AATA 67", "location": {"lat": 42.230034, "lng": -83.699933, "labeledLatLngs": [{"label": "display", "lat": 42.230034, "lng": -83.699933}], "cc": "US", "city": "Ann Arbor", "state": "MI", "country": "United States", "formattedAddress": ["Ann Arbor, MI", "United States"]}, "categories": [{"id": "52f2ab2ebcbc57f1066b8b4f", "name": "Bus Stop", "pluralName": "Bus Stops", "shortName": "Bus Stop", "icon": {"prefix": "https://ss3.4sqi.net/img/categories_v2/travel/busstation_", "suffix": ".png"}, "primary": true}], "referralId": "v-1572928597", "hasPerk": false}, {"id": "56a9593d498e166f04df209a", "name": "Washtenaw & South University", "location": {"lat": 42.27629121867062, "lng": -83.73162089984295, "labeledLatLngs": [{"label": "display", "lat": 42.27629121867062, "lng": -83.73162089984295}], "cc": "US", "city": "Ann Arbor", "state": "MI", "country": "United States", "formattedAddress": ["Ann Arbor, MI", "United States"]}, "categories": [{"id": "52f2ab2ebcbc57f1066b8b4f", "name": "Bus Stop", "pluralName": "Bus Stops", "shortName": "Bus Stop", "icon": {"prefix": "https://ss3.4sqi.net/img/categories_v2/travel/busstation_", "suffix": ".png"}, "primary": true}], "referralId": "v-1572928597", "hasPerk": false}, {"id": "55f73095498e2e9e398371d6", "name": "The Bus Stop", "location": {"address": "44908 Trails Ct", "lat": 42.350302, "lng": -83.484054, "labeledLatLngs": [{"label": "display", "lat": 42.350302, "lng": -83.484054}], "postalCode": "48187", "cc": "US", "city": "Canton", "state": "MI", "country": "United States", "formattedAddress": ["44908 Trails Ct", "Canton, MI 48187", "United States"]}, "categories": [{"id": "52f2ab2ebcbc57f1066b8b4f", "name": "Bus Stop", "pluralName": "Bus Stops", "shortName": "Bus Stop", "icon": {"prefix": "https://ss3.4sqi.net/img/categories_v2/travel/busstation_", "suffix": ".png"}, "primary": true}], "referralId": "v-1572928597", "hasPerk": false}, {"id": "4e551d98b61c93816c1123b3", "name": "AATA #2 Bus Stop", "location": {"address": "Plymouth Rd", "crossStreet": "Broadway", "lat": 42.29206465411023, "lng": -83.73747244004473, "labeledLatLngs": [{"label": "display", "lat": 42.29206465411023, "lng": -83.73747244004473}], "postalCode": "48105", "cc": "US", "city": "Ann Arbor", "state": "MI", "country": "United States", "formattedAddress": ["Plymouth Rd (Broadway)", "Ann Arbor, MI 48105", "United States"]}, "categories": [{"id": "52f2ab2ebcbc57f1066b8b4f", "name": "Bus Stop", "pluralName": "Bus Stops", "shortName": "Bus Stop", "icon": {"prefix": "https://ss3.4sqi.net/img/categories_v2/travel/busstation_", "suffix": ".png"}, "primary": true}], "referralId": "v-1572928597", "hasPerk": false}, {"id": "4f6256b7e4b0deb11c1e6eec", "name": "IM Building North Commuter Bus Stop", "location": {"lat": 42.26966395048392, "lng": -83.74277191833798, "labeledLatLngs": [{"label": "display", "lat": 42.26966395048392, "lng": -83.74277191833798}], "cc": "US", "state": "Michigan", "country": "United States", "formattedAddress": ["Michigan", "United States"]}, "categories": [{"id": "52f2ab2ebcbc57f1066b8b4f", "name": "Bus Stop", "pluralName": "Bus Stops", "shortName": "Bus Stop", "icon": {"prefix": "https://ss3.4sqi.net/img/categories_v2/travel/busstation_", "suffix": ".png"}, "primary": true}], "referralId": "v-1572928597", "hasPerk": false}, {"id": "521b2fff11d2aa1b39364e9e", "name": "AATA Bus Stop - Route 3", "location": {"lat": 42.25849960601412, "lng": -83.62299273663159, "labeledLatLngs": [{"label": "display", "lat": 42.25849960601412, "lng": -83.62299273663159}], "cc": "US", "city": "Ypsilanti", "state": "MI", "country": "United States", "formattedAddress": ["Ypsilanti, MI", "United States"]}, "categories": [{"id": "52f2ab2ebcbc57f1066b8b4f", "name": "Bus Stop", "pluralName": "Bus Stops", "shortName": "Bus Stop", "icon": {"prefix": "https://ss3.4sqi.net/img/categories_v2/travel/busstation_", "suffix": ".png"}, "primary": true}], "referralId": "v-1572928597", "hasPerk": false}, {"id": "502bb2a2e4b0bea491ecc24a", "name": "AATA #7 Bus Stop", "location": {"lat": 42.25241890366802, "lng": -83.74965100539333, "labeledLatLngs": [{"label": "display", "lat": 42.25241890366802, "lng": -83.74965100539333}], "postalCode": "48104", "cc": "US", "city": "Ann Arbor", "state": "MI", "country": "United States", "formattedAddress": ["Ann Arbor, MI 48104", "United States"]}, "categories": [{"id": "52f2ab2ebcbc57f1066b8b4f", "name": "Bus Stop", "pluralName": "Bus Stops", "shortName": "Bus Stop", "icon": {"prefix": "https://ss3.4sqi.net/img/categories_v2/travel/busstation_", "suffix": ".png"}, "primary": true}], "referralId": "v-1572928597", "hasPerk": false}], "confident": false, "geocode": {"what": "", "where": "ann arbor", "feature": {"cc": "US", "name": "Ann Arbor", "displayName": "Ann Arbor, MI, United States", "matchedName": "Ann Arbor, MI, United States", "highlightedName": "<b>Ann Arbor</b>, MI, United States", "woeType": 7, "slug": "ann-arbor-michigan", "id": "geonameid:4984247", "longId": "72057594042912183", "geometry": {"center": {"lat": 42.27756, "lng": -83.74088}, "bounds": {"ne": {"lat": 42.323971, "lng": -83.67580699999999}, "sw": {"lat": 42.222668, "lng": -83.799572}}}}, "parents": []}}, "ann arbor4bf58dd8d48988d10a951735": {"venues": [{"id": "4bb22a93f964a52063bf3ce3", "name": "Bank of Ann Arbor", "location": {"address": "125 S 5th Ave", "lat": 42.28068900928697, "lng": -83.7457681329472, "labeledLatLngs": [{"label": "display", "lat": 42.28068900928697, "lng": -83.7457681329472}], "postalCode": "48104", "cc": "US", "city": "Ann Arbor", "state": "MI", "country": "United States", "formattedAddress": ["125 S 5th Ave", "Ann Arbor, MI 48104", "United States"]}, "categories": [{"id": "4bf58dd8d48988d10a951735", "name": "Bank", "pluralName": "Banks", "shortName": "Bank", "icon": {"prefix": "https://ss3.4sqi.net/img/categories_v2/shops/financial_", "suffix": ".png"}, "primary": true}], "referralId": "v-1572928741", "hasPerk": false}, {"id": "4f296fa0239ca7340bac8f51", "name": "PNC Bank", "location": {"address": "10014 Grand River Rd", "lat": 42.520240891971504, "lng": -83.75991538177914, "labeledLatLngs": [{"label": "display", "lat": 42.520240891971504, "lng": -83.75991538177914}], "postalCode": "48116", "cc": "US", "city": "Brighton", "state": "MI", "country": "United States", "formattedAddress": ["10014 Grand River Rd", "Brighton, MI 48116", "United States"]}, "categories": [{"id": "4bf58dd8d48988d10a951735", "name": "Bank", "pluralName": "Banks", "shortName": "Bank", "icon": {"prefix": "https://ss3.4sqi.net/img/categories_v2/shops/financial_", "suffix": ".png"}, "primary": true}], "referralId": "v-1572928741", "hasPerk": false}, {"id": "4f301bfce4b06203595a4379", "name": "comerica", "location": {"lat": 42.54973079605549, "lng": -83.78899196007328, "labeledLatLngs": [{"label": "display", "lat": 42.54973079605549, "lng": -83.78899196007328}], "postalCode": "48114", "cc": "US", "city": "Brighton", "state": "MI", "country": "United States", "formattedAddress": ["Brighton, MI 48114", "United States"]}, "categories": [{"id": "4bf58dd8d48988d10a951735", "name": "Bank", "pluralName": "Banks", "shortName": "Bank", "icon": {"prefix": "https://ss3.4sqi.net/img/categories_v2/shops/financial_", "suffix": ".png"}, "primary": true}], "referralId": "v-1572928741", "hasPerk": false}, {"id": "5112928ae4b0b4b8893e990d", "name": "Dearborn Federal Credit Union", "location": {"lat": 42.242884, "lng": -83.746897, "labeledLatLngs": [{"label": "display", "lat": 42.242884, "lng": -83.746897}], "postalCode": "48108", "cc": "US", "city": "Ann Arbor", "state": "MI", "country": "United States", "formattedAddress": ["Ann Arbor, MI 48108", "United States"]}, "categories": [{"id": "4bf58dd8d48988d10a951735", "name": "Bank", "pluralName": "Banks", "shortName": "Bank", "icon": {"prefix": "https://ss3.4sqi.net/img/categories_v2/shops/financial_", "suffix": ".png"}, "primary": true}], "referralId": "v-1572928741", "hasPerk": false}, {"id": "5db1cf51d5dbb70008d8580f", "name": "Monroe Bank & Trust", "location": {"address": "41656 Ann Arbor Rd E", "lat": 42.35931, "lng": -83.450966, "labeledLatLngs": [{"label": "display", "lat": 42.35931, "lng": -83.450966}], "postalCode": "48170", "cc": "US", "city": "Plymouth", "state": "MI", "country": "United States", "formattedAddress": ["41656 Ann Arbor Rd E", "Plymouth, MI 48170", "United States"]}, "categories": [{"id": "4bf58dd8d48988d10a951735", "name": "Bank", "pluralName": "Banks", "shortName": "Bank", "icon": {"prefix": "https://ss3.4sqi.net/img/categories_v2/shops/financial_", "suffix": ".png"}, "primary": true}], "referralId": "v-1572928741", "hasPerk": false}, {"id": "5228c730fcf629660e9f59e4", "name": "Chase Bank", "location": {"address": "39820 8 Mile Rd", "lat": 42.439264, "lng": -83.437801, "labeledLatLngs": [{"label": "display", "lat": 42.439264, "lng": -83.437801}], "postalCode": "48167", "cc": "US", "city": "Northville", "state": "MI", "country": "United States", "formattedAddress": ["39820 8 Mile Rd", "Northville, MI 48167", "United States"]}, "categories": [{"id": "4bf58dd8d48988d10a951735", "name": "Bank", "pluralName": "Banks", "shortName": "Bank", "icon": {"prefix": "https://ss3.4sqi.net/img/categories_v2/shops/financial_", "suffix": ".png"}, "primary": true}], "referralId": "v-1572928741", "hasPerk": false}, {"id": "509ad654e4b088fdfc066c20", "name": "Bank of America", "location": {"lat": 42.427537229797004, "lng": -83.33899866168638, "labeledLatLngs": [{"label": "display", "lat": 42.427537229797004, "lng": -83.33899866168638}], "postalCode": "48152", "cc": "US", "city": "Livonia", "state": "MI", "country": "United States", "formattedAddress": ["Livonia, MI 48152", "United States"]}, "categories": [{"id": "4bf58dd8d48988d10a951735", "name": "Bank", "pluralName": "Banks", "shortName": "Bank", "icon": {"prefix": "https://ss3.4sqi.net/img/categories_v2/shops/financial_", "suffix": ".png"}, "primary": true}], "referralId": "v-1572928741", "hasPerk": false}, {"id": "4c61a3dc58810f47cc4b051e", "name": "PNC Bank", "location": {"address": "535 S Main St", "lat": 42.3687, "lng": -83.46933, "labeledLatLngs": [{"label": "display", "lat": 42.3687, "lng": -83.46933}], "postalCode": "48170", "cc": "US", "city": "Plymouth", "state": "MI", "country": "United States", "formattedAddress": ["535 S Main St", "Plymouth, MI 48170", "United States"]}, "categories": [{"id": "4bf58dd8d48988d10a951735", "name": "Bank", "pluralName": "Banks", "shortName": "Bank", "icon": {"prefix": "https://ss3.4sqi.net/img/categories_v2/shops/financial_", "suffix": ".png"}, "primary": true}], "referralId": "v-1572928741", "hasPerk": false}, {"id": "4c8562d2d34ca1435f114780", "name": "PNC Bank", "location": {"address": "344 N Main St", "lat": 42.59053, "lng": -83.59947, "labeledLatLngs": [{"label": "display", "lat": 42.59053, "lng": -83.59947}], "postalCode": "48381", "cc": "US", "city": "Milford", "state": "MI", "country": "United States", "formattedAddress": ["344 N Main St", "Milford, MI 48381", "United States"]}, "categories": [{"id": "4bf58dd8d48988d10a951735", "name": "Bank", "pluralName": "Banks", "shortName": "Bank", "icon": {"prefix": "https://ss3.4sqi.net/img/categories_v2/shops/financial_", "suffix": ".png"}, "primary": true}], "referralId": "v-1572928741", "hasPerk": false}, {"id": "4b941f7ff964a520ae6934e3", "name": "Bank of America", "location": {"address": "2250 W Michigan Ave", "crossStreet": "I-94", "lat": 42.22827214179713, "lng": -83.64490764654724, "labeledLatLngs": [{"label": "display", "lat": 42.22827214179713, "lng": -83.64490764654724}], "postalCode": "48197", "cc": "US", "city": "Ypsilanti", "state": "MI", "country": "United States", "formattedAddress": ["2250 W Michigan Ave (I-94)", "Ypsilanti, MI 48197", "United States"]}, "categories": [{"id": "4bf58dd8d48988d10a951735", "name": "Bank", "pluralName": "Banks", "shortName": "Bank", "icon": {"prefix": "https://ss3.4sqi.net/img/categories_v2/shops/financial_", "suffix": ".png"}, "primary": true}], "referralId": "v-1572928741", "hasPerk": false}, {"id": "4b55d291f964a5208bf127e3", "name": "Chase Bank", "location": {"address": "125 S Main St", "lat": 42.280707, "lng": -83.748158, "labeledLatLngs": [{"label": "display", "lat": 42.280707, "lng": -83.748158}], "postalCode": "48104", "cc": "US", "city": "Ann Arbor", "state": "MI", "country": "United States", "formattedAddress": ["125 S Main St", "Ann Arbor, MI 48104", "United States"]}, "categories": [{"id": "4bf58dd8d48988d10a951735", "name": "Bank", "pluralName": "Banks", "shortName": "Bank", "icon": {"prefix": "https://ss3.4sqi.net/img/categories_v2/shops/financial_", "suffix": ".png"}, "primary": true}], "referralId": "v-1572928741", "hasPerk": false}, {"id": "4bc10790461576b0314b7b32", "name": "Bank of America", "location": {"address": "395 Briarwood Cir", "lat": 42.24327128087133, "lng": -83.74399695417337, "labeledLatLngs": [{"label": "display", "lat": 42.24327128087133, "lng": -83.74399695417337}], "postalCode": "48108", "cc": "US", "city": "Ann Arbor", "state": "MI", "country": "United States", "formattedAddress": ["395 Briarwood Cir", "Ann Arbor, MI 48108", "United States"]}, "categories": [{"id": "4bf58dd8d48988d10a951735", "name": "Bank", "pluralName": "Banks", "shortName": "Bank", "icon": {"prefix": "https://ss3.4sqi.net/img/categories_v2/shops/financial_", "suffix": ".png"}, "primary": true}], "referralId": "v-1572928741", "hasPerk": false}, {"id": "4c1cd864b4e62d7f3da3db93", "name": "Chase Bank", "location": {"address": "43100 Grand River Ave", "lat": 42.480377, "lng": -83.471839, "labeledLatLngs": [{"label": "display", "lat": 42.480377, "lng": -83.471839}], "postalCode": "48375", "cc": "US", "city": "Novi", "state": "MI", "country": "United States", "formattedAddress": ["43100 Grand River Ave", "Novi, MI 48375", "United States"]}, "categories": [{"id": "4bf58dd8d48988d10a951735", "name": "Bank", "pluralName": "Banks", "shortName": "Bank", "icon": {"prefix": "https://ss3.4sqi.net/img/categories_v2/shops/financial_", "suffix": ".png"}, "primary": true}], "referralId": "v-1572928741", "hasPerk": false}, {"id": "4bfeaedd68c7a593e0813f44", "name": "PNC Bank", "location": {"address": "35215 W Michigan Ave", "crossStreet": "Wayne Rd.", "lat": 42.28214, "lng": -83.38584, "labeledLatLngs": [{"label": "display", "lat": 42.28214, "lng": -83.38584}], "postalCode": "48184", "cc": "US", "city": "Wayne", "state": "MI", "country": "United States", "formattedAddress": ["35215 W Michigan Ave (Wayne Rd.)", "Wayne, MI 48184", "United States"]}, "categories": [{"id": "4bf58dd8d48988d10a951735", "name": "Bank", "pluralName": "Banks", "shortName": "Bank", "icon": {"prefix": "https://ss3.4sqi.net/img/categories_v2/shops/financial_", "suffix": ".png"}, "primary": true}], "referralId": "v-1572928741", "hasPerk": false}, {"id": "4b4c245bf964a520bdae26e3", "name": "PNC Mortgage", "location": {"address": "3175 W Clark Rd", "crossStreet": "Golfside Road", "lat": 42.259151076754726, "lng": -83.66073818417306, "labeledLatLngs": [{"label": "display", "lat": 42.259151076754726, "lng": -83.66073818417306}], "postalCode": "48197", "cc": "US", "city": "Ypsilanti", "state": "MI", "country": "United States", "formattedAddress": ["3175 W Clark Rd (Golfside Road)", "Ypsilanti, MI 48197", "United States"]}, "categories": [{"id": "4bf58dd8d48988d10a951735", "name": "Bank", "pluralName": "Banks", "shortName": "Bank", "icon": {"prefix": "https://ss3.4sqi.net/img/categories_v2/shops/financial_", "suffix": ".png"}, "primary": true}], "referralId": "v-1572928741", "hasPerk": false}, {"id": "4b80450ff964a520bd6230e3", "name": "Bank Of America", "location": {"address": "45850 Michigan Ave", "crossStreet": "Canton center", "lat": 42.27180331159327, "lng": -83.49012276525795, "labeledLatLngs": [{"label": "display", "lat": 42.27180331159327, "lng": -83.49012276525795}], "postalCode": "48188", "cc": "US", "city": "Canton", "state": "MI", "country": "United States", "formattedAddress": ["45850 Michigan Ave (Canton center)", "Canton, MI 48188", "United States"]}, "categories": [{"id": "4bf58dd8d48988d10a951735", "name": "Bank", "pluralName": "Banks", "shortName": "Bank", "icon": {"prefix": "https://ss3.4sqi.net/img/categories_v2/shops/financial_", "suffix": ".png"}, "primary": true}], "referralId": "v-1572928741", "hasPerk": false}, {"id": "4be596b4d4f7c9b658942520", "name": "PNC Bank", "location": {"address": "19450 Haggerty Rd", "lat": 42.42715, "lng": -83.43266, "labeledLatLngs": [{"label": "display", "lat": 42.42715, "lng": -83.43266}], "postalCode": "48152", "cc": "US", "city": "Livonia", "state": "MI", "country": "United States", "formattedAddress": ["19450 Haggerty Rd", "Livonia, MI 48152", "United States"]}, "categories": [{"id": "4bf58dd8d48988d10a951735", "name": "Bank", "pluralName": "Banks", "shortName": "Bank", "icon": {"prefix": "https://ss3.4sqi.net/img/categories_v2/shops/financial_", "suffix": ".png"}, "primary": true}], "referralId": "v-1572928741", "hasPerk": false}, {"id": "4be4890d910020a148dad114", "name": "Bank of America", "location": {"address": "40900 Ann Arbor Rd E", "crossStreet": "at Haggerty Rd.", "lat": 42.3588135141124, "lng": -83.44543818462496, "labeledLatLngs": [{"label": "display", "lat": 42.3588135141124, "lng": -83.44543818462496}], "postalCode": "48170", "cc": "US", "city": "Plymouth", "state": "MI", "country": "United States", "formattedAddress": ["40900 Ann Arbor Rd E (at Haggerty Rd.)", "Plymouth, MI 48170", "United States"]}, "categories": [{"id": "4bf58dd8d48988d10a951735", "name": "Bank", "pluralName": "Banks", "shortName": "Bank", "icon": {"prefix": "https://ss3.4sqi.net/img/categories_v2/shops/financial_", "suffix": ".png"}, "primary": true}], "referralId": "v-1572928741", "hasPerk": false}, {"id": "4cc6719fbe40a35dc9508a4c", "name": "Bank Of America", "location": {"address": "44101 Ford Rd", "crossStreet": "Sheldon", "lat": 42.32188391346618, "lng": -83.47612313353095, "labeledLatLngs": [{"label": "display", "lat": 42.32188391346618, "lng": -83.47612313353095}], "postalCode": "48187", "cc": "US", "city": "Canton", "state": "MI", "country": "United States", "formattedAddress": ["44101 Ford Rd (Sheldon)", "Canton, MI 48187", "United States"]}, "categories": [{"id": "4bf58dd8d48988d10a951735", "name": "Bank", "pluralName": "Banks", "shortName": "Bank", "icon": {"prefix": "https://ss3.4sqi.net/img/categories_v2/shops/financial_", "suffix": ".png"}, "primary": true}], "referralId": "v-1572928741", "hasPerk": false}, {"id": "4b969df7f964a52009d934e3", "name": "Chase Bank", "location": {"address": "105 Briarwood Cir", "lat": 42.2430434, "lng": -83.7487892, "labeledLatLngs": [{"label": "display", "lat": 42.2430434, "lng": -83.7487892}], "postalCode": "48108", "cc": "US", "city": "Ann Arbor", "state": "MI", "country": "United States", "formattedAddress": ["105 Briarwood Cir", "Ann Arbor, MI 48108", "United States"]}, "categories": [{"id": "4bf58dd8d48988d10a951735", "name": "Bank", "pluralName": "Banks", "shortName": "Bank", "icon": {"prefix": "https://ss3.4sqi.net/img/categories_v2/shops/financial_", "suffix": ".png"}, "primary": true}], "referralId": "v-1572928741", "hasPerk": false}, {"id": "4bead26eb3352d7f48a055d2", "name": "Chase Bank", "location": {"address": "465 Main St", "lat": 42.208446, "lng": -83.4914456, "labeledLatLngs": [{"label": "display", "lat": 42.208446, "lng": -83.4914456}], "postalCode": "48111", "cc": "US", "city": "Belleville", "state": "MI", "country": "United States", "formattedAddress": ["465 Main St", "Belleville, MI 48111", "United States"]}, "categories": [{"id": "4bf58dd8d48988d10a951735", "name": "Bank", "pluralName": "Banks", "shortName": "Bank", "icon": {"prefix": "https://ss3.4sqi.net/img/categories_v2/shops/financial_", "suffix": ".png"}, "primary": true}], "referralId": "v-1572928741", "hasPerk": false}, {"id": "4fb533847beb65c72e11e190", "name": "Chase Bank", "location": {"address": "2475 W Stadium Blvd", "lat": 42.279084, "lng": -83.780664, "labeledLatLngs": [{"label": "display", "lat": 42.279084, "lng": -83.780664}], "postalCode": "48103", "cc": "US", "city": "Ann Arbor", "state": "MI", "country": "United States", "formattedAddress": ["2475 W Stadium Blvd", "Ann Arbor, MI 48103", "United States"]}, "categories": [{"id": "4bf58dd8d48988d10a951735", "name": "Bank", "pluralName": "Banks", "shortName": "Bank", "icon": {"prefix": "https://ss3.4sqi.net/img/categories_v2/shops/financial_", "suffix": ".png"}, "primary": true}], "referralId": "v-1572928741", "hasPerk": false}, {"id": "4c13bd2da1010f470b204b18", "name": "Comerica", "location": {"lat": 42.268890941222566, "lng": -83.77301757742619, "labeledLatLngs": [{"label": "display", "lat": 42.268890941222566, "lng": -83.77301757742619}], "postalCode": "48103", "cc": "US", "city": "Ann Arbor", "state": "MI", "country": "United States", "formattedAddress": ["Ann Arbor, MI 48103", "United States"]}, "categories": [{"id": "4bf58dd8d48988d10a951735", "name": "Bank", "pluralName": "Banks", "shortName": "Bank", "icon": {"prefix": "https://ss3.4sqi.net/img/categories_v2/shops/financial_", "suffix": ".png"}, "primary": true}], "referralId": "v-1572928741", "hasPerk": false}, {"id": "4c7536311b30a09392a1ee09", "name": "Chase Bank", "location": {"address": "37458 6 Mile Rd", "lat": 42.411593509571645, "lng": -83.41435343027115, "labeledLatLngs": [{"label": "display", "lat": 42.411593509571645, "lng": -83.41435343027115}], "postalCode": "48152", "cc": "US", "city": "Livonia", "state": "MI", "country": "United States", "formattedAddress": ["37458 6 Mile Rd", "Livonia, MI 48152", "United States"]}, "categories": [{"id": "4bf58dd8d48988d10a951735", "name": "Bank", "pluralName": "Banks", "shortName": "Bank", "icon": {"prefix": "https://ss3.4sqi.net/img/categories_v2/shops/financial_", "suffix": ".png"}, "primary": true}], "referralId": "v-1572928741", "hasPerk": false}, {"id": "4b731de7f964a520669c2de3", "name": "DFCU Financial", "location": {"address": "1477 N Canton Center Rd, (at Saltz Rd)", "crossStreet": "at Saltz Rd", "lat": 42.3179, "lng": -83.48863, "labeledLatLngs": [{"label": "display", "lat": 42.3179, "lng": -83.48863}], "postalCode": "48187", "cc": "US", "city": "Canton", "state": "MI", "country": "United States", "formattedAddress": ["1477 N Canton Center Rd, (at Saltz Rd) (at Saltz Rd)", "Canton, MI 48187", "United States"]}, "categories": [{"id": "5032850891d4c4b30a586d62", "name": "Credit Union", "pluralName": "Credit Unions", "shortName": "Credit Union", "icon": {"prefix": "https://ss3.4sqi.net/img/categories_v2/shops/financial_", "suffix": ".png"}, "primary": true}], "referralId": "v-1572928741", "hasPerk": false}], "confident": false, "geocode": {"what": "", "where": "ann arbor", "feature": {"cc": "US", "name": "Ann Arbor", "displayName": "Ann Arbor, MI, United States", "matchedName": "Ann Arbor, MI, United States", "highlightedName": "<b>Ann Arbor</b>, MI, United States", "woeType": 7, "slug": "ann-arbor-michigan", "id": "geonameid:4984247", "longId": "72057594042912183", "geometry": {"center": {"lat": 42.27756, "lng": -83.74088}, "bounds": {"ne": {"lat": 42.323971, "lng": -83.67580699999999}, "sw": {"lat": 42.222668, "lng": -83.799572}}}}, "parents": []}}, "university of michigan4bf58dd8d48988d1e1931735": {"venues": [{"id": "44b6433bf964a52061351fe3", "name": "Pinball Pete's", "location": {"address": "1214 S University Ave", "crossStreet": "btw Church St & S Forest Ave", "lat": 42.27504173079408, "lng": -83.73379110919231, "labeledLatLngs": [{"label": "display", "lat": 42.27504173079408, "lng": -83.73379110919231}], "postalCode": "48104", "cc": "US", "city": "Ann Arbor", "state": "MI", "country": "United States", "formattedAddress": ["1214 S University Ave (btw Church St & S Forest Ave)", "Ann Arbor, MI 48104", "United States"]}, "categories": [{"id": "4bf58dd8d48988d1e1931735", "name": "Arcade", "pluralName": "Arcades", "shortName": "Arcade", "icon": {"prefix": "https://ss3.4sqi.net/img/categories_v2/arts_entertainment/arcade_", "suffix": ".png"}, "primary": true}], "referralId": "v-1575904030", "hasPerk": false}, {"id": "4bd3a2a49854d13a8259fe4d", "name": "Avenue Bar And Grill", "location": {"address": "3632 Elizabeth St", "crossStreet": "Michigan Ave.", "lat": 42.28244460607361, "lng": -83.3888053894043, "labeledLatLngs": [{"label": "display", "lat": 42.28244460607361, "lng": -83.3888053894043}], "postalCode": "48184", "cc": "US", "city": "Wayne", "state": "MI", "country": "United States", "formattedAddress": ["3632 Elizabeth St (Michigan Ave.)", "Wayne, MI 48184", "United States"]}, "categories": [{"id": "4bf58dd8d48988d11d941735", "name": "Sports Bar", "pluralName": "Sports Bars", "shortName": "Sports Bar", "icon": {"prefix": "https://ss3.4sqi.net/img/categories_v2/nightlife/sportsbar_", "suffix": ".png"}, "primary": true}], "referralId": "v-1575904030", "hasPerk": false}, {"id": "5c3e62235f68b9002ce96cec", "name": "Pump It Up", "location": {"address": "34700 Warren Rd", "lat": 42.3414204, "lng": -83.38180896, "labeledLatLngs": [{"label": "display", "lat": 42.3414204, "lng": -83.38180896}], "postalCode": "48185", "cc": "US", "city": "Westland", "state": "MI", "country": "United States", "formattedAddress": ["34700 Warren Rd", "Westland, MI 48185", "United States"]}, "categories": [{"id": "4bf58dd8d48988d1e1931735", "name": "Arcade", "pluralName": "Arcades", "shortName": "Arcade", "icon": {"prefix": "https://ss3.4sqi.net/img/categories_v2/arts_entertainment/arcade_", "suffix": ".png"}, "primary": true}], "venuePage": {"id": "547395638"}, "referralId": "v-1575904030", "hasPerk": false}, {"id": "4b9d4dbbf964a520e8a136e3", "name": "Pump It Up", "location": {"address": "28373 Beck Rd", "lat": 42.49985844411398, "lng": -83.51792941335714, "labeledLatLngs": [{"label": "display", "lat": 42.49985844411398, "lng": -83.51792941335714}], "postalCode": "48393", "cc": "US", "city": "Wixom", "state": "MI", "country": "United States", "formattedAddress": ["28373 Beck Rd", "Wixom, MI 48393", "United States"]}, "categories": [{"id": "4bf58dd8d48988d1e7941735", "name": "Playground", "pluralName": "Playgrounds", "shortName": "Playground", "icon": {"prefix": "https://ss3.4sqi.net/img/categories_v2/parks_outdoors/playground_", "suffix": ".png"}, "primary": true}], "venuePage": {"id": "545647547"}, "referralId": "v-1575904030", "hasPerk": false}, {"id": "4c99dd5d971676b04da551e2", "name": "DHL GLBL FWDG", "location": {"address": "38701 7 Mile Rd", "crossStreet": "@ 275", "lat": 42.42417812347412, "lng": -83.42793345451355, "labeledLatLngs": [{"label": "display", "lat": 42.42417812347412, "lng": -83.42793345451355}], "postalCode": "48152", "cc": "US", "city": "Livonia", "state": "MI", "country": "United States", "formattedAddress": ["38701 7 Mile Rd (@ 275)", "Livonia, MI 48152", "United States"]}, "categories": [{"id": "4bf58dd8d48988d1e1931735", "name": "Arcade", "pluralName": "Arcades", "shortName": "Arcade", "icon": {"prefix": "https://ss3.4sqi.net/img/categories_v2/arts_entertainment/arcade_", "suffix": ".png"}, "primary": true}], "referralId": "v-1575904030", "hasPerk": false}, {"id": "52c1d2e6498e31be7c3a20e7", "name": "Bounce It Up", "location": {"address": "30276 Plymouth Rd", "lat": 42.37088556675042, "lng": -83.34156143947375, "labeledLatLngs": [{"label": "display", "lat": 42.37088556675042, "lng": -83.34156143947375}], "postalCode": "48150", "cc": "US", "city": "Livonia", "state": "MI", "country": "United States", "formattedAddress": ["30276 Plymouth Rd", "Livonia, MI 48150", "United States"]}, "categories": [{"id": "4bf58dd8d48988d1e1931735", "name": "Arcade", "pluralName": "Arcades", "shortName": "Arcade", "icon": {"prefix": "https://ss3.4sqi.net/img/categories_v2/arts_entertainment/arcade_", "suffix": ".png"}, "primary": true}], "referralId": "v-1575904030", "hasPerk": false}, {"id": "4dcd50aad4c065592f623d5d", "name": "Whirlyball", "location": {"address": "750 Phoenix Dr", "lat": 42.230460451380594, "lng": -83.7073892460626, "labeledLatLngs": [{"label": "display", "lat": 42.230460451380594, "lng": -83.7073892460626}], "postalCode": "48108", "cc": "US", "city": "Ann Arbor", "state": "MI", "country": "United States", "formattedAddress": ["750 Phoenix Dr", "Ann Arbor, MI 48108", "United States"]}, "categories": [{"id": "4bf58dd8d48988d1e1931735", "name": "Arcade", "pluralName": "Arcades", "shortName": "Arcade", "icon": {"prefix": "https://ss3.4sqi.net/img/categories_v2/arts_entertainment/arcade_", "suffix": ".png"}, "primary": true}], "referralId": "v-1575904030", "hasPerk": false}, {"id": "50ad1a96e4b02f61d4f4cad5", "name": "Front Line", "location": {"lat": 42.07236073584005, "lng": -83.97051697248055, "labeledLatLngs": [{"label": "display", "lat": 42.07236073584005, "lng": -83.97051697248055}], "postalCode": "49236", "cc": "US", "city": "Clinton", "state": "MI", "country": "United States", "formattedAddress": ["Clinton, MI 49236", "United States"]}, "categories": [{"id": "4bf58dd8d48988d1e1931735", "name": "Arcade", "pluralName": "Arcades", "shortName": "Arcade", "icon": {"prefix": "https://ss3.4sqi.net/img/categories_v2/arts_entertainment/arcade_", "suffix": ".png"}, "primary": true}], "referralId": "v-1575904030", "hasPerk": false}, {"id": "4cb8cbffc7228cfa85550bce", "name": "Comic City", "location": {"address": "43538 W Oaks Dr", "lat": 42.4793877606798, "lng": -83.45743340831585, "labeledLatLngs": [{"label": "display", "lat": 42.4793877606798, "lng": -83.45743340831585}], "postalCode": "48377", "cc": "US", "city": "Novi", "state": "MI", "country": "United States", "formattedAddress": ["43538 W Oaks Dr", "Novi, MI 48377", "United States"]}, "categories": [{"id": "4bf58dd8d48988d1e1931735", "name": "Arcade", "pluralName": "Arcades", "shortName": "Arcade", "icon": {"prefix": "https://ss3.4sqi.net/img/categories_v2/arts_entertainment/arcade_", "suffix": ".png"}, "primary": true}], "referralId": "v-1575904030", "hasPerk": false}, {"id": "4f32c7e919836c91c7f9e20a", "name": "Blaster's Family Fun Center", "location": {"address": "8491 W Grand River Ave", "lat": 42.54421, "lng": -83.788418, "labeledLatLngs": [{"label": "display", "lat": 42.54421, "lng": -83.788418}], "postalCode": "48116", "cc": "US", "city": "Brighton", "state": "MI", "country": "United States", "formattedAddress": ["8491 W Grand River Ave", "Brighton, MI 48116", "United States"]}, "categories": [{"id": "4bf58dd8d48988d1e1931735", "name": "Arcade", "pluralName": "Arcades", "shortName": "Arcade", "icon": {"prefix": "https://ss3.4sqi.net/img/categories_v2/arts_entertainment/arcade_", "suffix": ".png"}, "primary": true}], "referralId": "v-1575904030", "hasPerk": false}, {"id": "4cb8cc08a33bb1f7dadc83fd", "name": "Comic City", "location": {"address": "43538 W Oaks Dr", "lat": 42.48620699249458, "lng": -83.47537050217682, "labeledLatLngs": [{"label": "display", "lat": 42.48620699249458, "lng": -83.47537050217682}], "postalCode": "48377", "cc": "US", "city": "Novi", "state": "MI", "country": "United States", "formattedAddress": ["43538 W Oaks Dr", "Novi, MI 48377", "United States"]}, "categories": [{"id": "4bf58dd8d48988d1e1931735", "name": "Arcade", "pluralName": "Arcades", "shortName": "Arcade", "icon": {"prefix": "https://ss3.4sqi.net/img/categories_v2/arts_entertainment/arcade_", "suffix": ".png"}, "primary": true}], "referralId": "v-1575904030", "hasPerk": false}, {"id": "4bbb9f1e2d9ea5935da49fce", "name": "Zap Zone", "location": {"address": "41953 Ford Rd", "lat": 42.32162075196599, "lng": -83.45489897049305, "labeledLatLngs": [{"label": "display", "lat": 42.32162075196599, "lng": -83.45489897049305}], "postalCode": "48187", "cc": "US", "city": "Canton", "state": "MI", "country": "United States", "formattedAddress": ["41953 Ford Rd", "Canton, MI 48187", "United States"]}, "categories": [{"id": "52e81612bcbc57f1066b79e6", "name": "Laser Tag", "pluralName": "Laser Tag Places", "shortName": "Laser Tag", "icon": {"prefix": "https://ss3.4sqi.net/img/categories_v2/arts_entertainment/default_", "suffix": ".png"}, "primary": true}], "referralId": "v-1575904030", "hasPerk": false}, {"id": "4b5b5d0ff964a520f2f728e3", "name": "Zap Zone", "location": {"address": "4177 Carpenter Rd", "lat": 42.227295109397005, "lng": -83.6791082321529, "labeledLatLngs": [{"label": "display", "lat": 42.227295109397005, "lng": -83.6791082321529}], "postalCode": "48197", "cc": "US", "city": "Ypsilanti", "state": "MI", "country": "United States", "formattedAddress": ["4177 Carpenter Rd", "Ypsilanti, MI 48197", "United States"]}, "categories": [{"id": "52e81612bcbc57f1066b79e6", "name": "Laser Tag", "pluralName": "Laser Tag Places", "shortName": "Laser Tag", "icon": {"prefix": "https://ss3.4sqi.net/img/categories_v2/arts_entertainment/default_", "suffix": ".png"}, "primary": true}], "referralId": "v-1575904030", "hasPerk": false}, {"id": "4b92bb24f964a520231634e3", "name": "Whirlyball", "location": {"address": "41550 Grand River Ave", "crossStreet": "at Meadowbrook Rd.", "lat": 42.478821510098236, "lng": -83.4583288000506, "labeledLatLngs": [{"label": "display", "lat": 42.478821510098236, "lng": -83.4583288000506}], "postalCode": "48375", "cc": "US", "city": "Novi", "state": "MI", "country": "United States", "formattedAddress": ["41550 Grand River Ave (at Meadowbrook Rd.)", "Novi, MI 48375", "United States"]}, "categories": [{"id": "4bf58dd8d48988d1e1931735", "name": "Arcade", "pluralName": "Arcades", "shortName": "Arcade", "icon": {"prefix": "https://ss3.4sqi.net/img/categories_v2/arts_entertainment/arcade_", "suffix": ".png"}, "primary": true}], "referralId": "v-1575904030", "hasPerk": false}, {"id": "4bd750c1b5409521d0c06962", "name": "Lucky Strike Novi", "location": {"address": "44325 W 12 Mile Rd", "lat": 42.49113902960877, "lng": -83.48462931657618, "labeledLatLngs": [{"label": "display", "lat": 42.49113902960877, "lng": -83.48462931657618}], "postalCode": "48377", "cc": "US", "city": "Novi", "state": "MI", "country": "United States", "formattedAddress": ["44325 W 12 Mile Rd", "Novi, MI 48377", "United States"]}, "categories": [{"id": "4bf58dd8d48988d1e4931735", "name": "Bowling Alley", "pluralName": "Bowling Alleys", "shortName": "Bowling Alley", "icon": {"prefix": "https://ss3.4sqi.net/img/categories_v2/arts_entertainment/bowling_", "suffix": ".png"}, "primary": true}], "referralId": "v-1575904030", "hasPerk": false}, {"id": "583a0decf697e03e51014d4d", "name": "Funland", "location": {"lat": 42.340921, "lng": -83.382324, "labeledLatLngs": [{"label": "display", "lat": 42.340921, "lng": -83.382324}], "cc": "US", "city": "Westland", "state": "MI", "country": "United States", "formattedAddress": ["Westland, MI", "United States"]}, "categories": [{"id": "4bf58dd8d48988d1e1931735", "name": "Arcade", "pluralName": "Arcades", "shortName": "Arcade", "icon": {"prefix": "https://ss3.4sqi.net/img/categories_v2/arts_entertainment/arcade_", "suffix": ".png"}, "primary": true}], "referralId": "v-1575904030", "hasPerk": false}, {"id": "4b6c6523f964a5208c362ce3", "name": "Town 'N' Country Lanes", "location": {"address": "1100 S Wayne Rd", "crossStreet": "Avondale St.", "lat": 42.301394337577236, "lng": -83.38901752906034, "labeledLatLngs": [{"label": "display", "lat": 42.301394337577236, "lng": -83.38901752906034}], "postalCode": "48186", "cc": "US", "city": "Westland", "state": "MI", "country": "United States", "formattedAddress": ["1100 S Wayne Rd (Avondale St.)", "Westland, MI 48186", "United States"]}, "categories": [{"id": "4bf58dd8d48988d1e4931735", "name": "Bowling Alley", "pluralName": "Bowling Alleys", "shortName": "Bowling Alley", "icon": {"prefix": "https://ss3.4sqi.net/img/categories_v2/arts_entertainment/bowling_", "suffix": ".png"}, "primary": true}], "referralId": "v-1575904030", "hasPerk": false}, {"id": "52b47cba498ed328b6ad2416", "name": "Dave & Buster's", "location": {"address": "19375 Victor Pkwy,", "lat": 42.428404, "lng": -83.422647, "labeledLatLngs": [{"label": "display", "lat": 42.428404, "lng": -83.422647}], "postalCode": "48152", "cc": "US", "city": "Livonia", "state": "MI", "country": "United States", "formattedAddress": ["19375 Victor Pkwy,", "Livonia, MI 48152", "United States"]}, "categories": [{"id": "4bf58dd8d48988d1e1931735", "name": "Arcade", "pluralName": "Arcades", "shortName": "Arcade", "icon": {"prefix": "https://ss3.4sqi.net/img/categories_v2/arts_entertainment/arcade_", "suffix": ".png"}, "primary": true}], "referralId": "v-1575904030", "hasPerk": false}, {"id": "4b5c9cdff964a520e93929e3", "name": "Chuck E. Cheese", "location": {"address": "2655 Oak Valley Dr.", "lat": 42.247614, "lng": -83.768219, "labeledLatLngs": [{"label": "display", "lat": 42.247614, "lng": -83.768219}], "postalCode": "48103", "cc": "US", "city": "Ann Arbor", "state": "MI", "country": "United States", "formattedAddress": ["2655 Oak Valley Dr.", "Ann Arbor, MI 48103", "United States"]}, "categories": [{"id": "4bf58dd8d48988d1e1931735", "name": "Arcade", "pluralName": "Arcades", "shortName": "Arcade", "icon": {"prefix": "https://ss3.4sqi.net/img/categories_v2/arts_entertainment/arcade_", "suffix": ".png"}, "primary": true}], "delivery": {"id": "773496", "url": "https://www.grubhub.com/restaurant/chuck-e-cheeses-2655-oak-valley-dr-ann-arbor/773496?affiliate=1131&utm_source=foursquare-affiliate-network&utm_medium=affiliate&utm_campaign=1131&utm_content=773496", "provider": {"name": "grubhub", "icon": {"prefix": "https://fastly.4sqi.net/img/general/cap/", "sizes": [40, 50], "name": "/delivery_provider_grubhub_20180129.png"}}}, "referralId": "v-1575904030", "hasPerk": false}, {"id": "57a51a90cd106ad9496ce84c", "name": "Sky Zone", "location": {"address": "42550 Executive Drive", "lat": 42.29189, "lng": -83.43693, "labeledLatLngs": [{"label": "display", "lat": 42.29189, "lng": -83.43693}], "postalCode": "48188", "cc": "US", "city": "Canton", "state": "MI", "country": "United States", "formattedAddress": ["42550 Executive Drive", "Canton, MI 48188", "United States"]}, "categories": [{"id": "4bf58dd8d48988d1e1931735", "name": "Arcade", "pluralName": "Arcades", "shortName": "Arcade", "icon": {"prefix": "https://ss3.4sqi.net/img/categories_v2/arts_entertainment/arcade_", "suffix": ".png"}, "primary": true}], "referralId": "v-1575904030", "hasPerk": false}, {"id": "4f1b505ee4b0d9f8b940cfba", "name": "black ops ;<3", "location": {"lat": 42.327903747558594, "lng": -83.40670013427734, "labeledLatLngs": [{"label": "display", "lat": 42.327903747558594, "lng": -83.40670013427734}], "postalCode": "48185", "cc": "US", "city": "Westland", "state": "MI", "country": "United States", "formattedAddress": ["Westland, MI 48185", "United States"]}, "categories": [{"id": "4bf58dd8d48988d1e1931735", "name": "Arcade", "pluralName": "Arcades", "shortName": "Arcade", "icon": {"prefix": "https://ss3.4sqi.net/img/categories_v2/arts_entertainment/arcade_", "suffix": ".png"}, "primary": true}], "referralId": "v-1575904030", "hasPerk": false}, {"id": "4e36f0ec62846459f80030b8", "name": "Haas Lake Arcade", "location": {"lat": 42.477204068601516, "lng": -83.58369249916217, "labeledLatLngs": [{"label": "display", "lat": 42.477204068601516, "lng": -83.58369249916217}], "cc": "US", "city": "Wixom", "state": "MI", "country": "United States", "formattedAddress": ["Wixom, MI", "United States"]}, "categories": [{"id": "4bf58dd8d48988d1e1931735", "name": "Arcade", "pluralName": "Arcades", "shortName": "Arcade", "icon": {"prefix": "https://ss3.4sqi.net/img/categories_v2/arts_entertainment/arcade_", "suffix": ".png"}, "primary": true}], "referralId": "v-1575904030", "hasPerk": false}, {"id": "562bbb18498efd46b92b01e2", "name": "Revel And Roll", "location": {"address": "1950 S Industrial Hwy", "lat": 42.25901608675864, "lng": -83.73817704617689, "labeledLatLngs": [{"label": "display", "lat": 42.25901608675864, "lng": -83.73817704617689}], "postalCode": "48104", "cc": "US", "city": "Ann Arbor", "state": "MI", "country": "United States", "formattedAddress": ["1950 S Industrial Hwy", "Ann Arbor, MI 48104", "United States"]}, "categories": [{"id": "4bf58dd8d48988d1e1931735", "name": "Arcade", "pluralName": "Arcades", "shortName": "Arcade", "icon": {"prefix": "https://ss3.4sqi.net/img/categories_v2/arts_entertainment/arcade_", "suffix": ".png"}, "primary": true}], "referralId": "v-1575904030", "hasPerk": false}], "confident": false, "geocode": {"what": "", "where": "university of michigan", "feature": {"cc": "US", "name": "University of Michigan", "displayName": "University of Michigan, MI, United States", "matchedName": "University of Michigan, MI, United States", "highlightedName": "<b>University of Michigan</b>, MI, United States", "woeType": 20, "id": "geonameid:5012988", "longId": "72057594042940924", "geometry": {"center": {"lat": 42.27587, "lng": -83.73605}, "bounds": {"ne": {"lat": 42.305026, "lng": -83.692548}, "sw": {"lat": 42.262691, "lng": -83.750299}}}}, "parents": []}}, "university of michigan5bae9231bedf3950379f89cd": {"venues": [{"id": "4f104fcce4b019e98fe6c12a", "name": "Genoa Township Sledding Hill", "location": {"lat": 42.55803269970229, "lng": -83.82464057910158, "labeledLatLngs": [{"label": "display", "lat": 42.55803269970229, "lng": -83.82464057910158}], "postalCode": "48116", "cc": "US", "city": "Brighton", "state": "MI", "country": "United States", "formattedAddress": ["Brighton, MI 48116", "United States"]}, "categories": [{"id": "5bae9231bedf3950379f89cd", "name": "Hill", "pluralName": "Hills", "shortName": "Hill", "icon": {"prefix": "https://ss3.4sqi.net/img/categories_v2/parks_outdoors/default_", "suffix": ".png"}, "primary": true}], "referralId": "v-1575904950", "hasPerk": false}, {"id": "580976c338fae81e990fdaa7", "name": "The Hill", "location": {"address": "9 Mile Road", "lat": 42.452816, "lng": -83.448074, "labeledLatLngs": [{"label": "display", "lat": 42.452816, "lng": -83.448074}], "postalCode": "48375", "cc": "US", "city": "Novi", "state": "MI", "country": "United States", "formattedAddress": ["9 Mile Road", "Novi, MI 48375", "United States"]}, "categories": [{"id": "5bae9231bedf3950379f89cd", "name": "Hill", "pluralName": "Hills", "shortName": "Hill", "icon": {"prefix": "https://ss3.4sqi.net/img/categories_v2/parks_outdoors/default_", "suffix": ".png"}, "primary": true}], "referralId": "v-1575904950", "hasPerk": false}, {"id": "50df5e71e4b0cf8b3b28404e", "name": "Plymouth Township Park Sledding Hill", "location": {"lat": 42.36807669244775, "lng": -83.5015715306379, "labeledLatLngs": [{"label": "display", "lat": 42.36807669244775, "lng": -83.5015715306379}], "postalCode": "48170", "cc": "US", "city": "Plymouth", "state": "MI", "country": "United States", "formattedAddress": ["Plymouth, MI 48170", "United States"]}, "categories": [{"id": "5bae9231bedf3950379f89cd", "name": "Hill", "pluralName": "Hills", "shortName": "Hill", "icon": {"prefix": "https://ss3.4sqi.net/img/categories_v2/parks_outdoors/default_", "suffix": ".png"}, "primary": true}], "referralId": "v-1575904950", "hasPerk": false}, {"id": "4d4466331ed56dcb8df9ae54", "name": "Kensington Metropark Sledding Hill", "location": {"address": "Kent Lake Road", "lat": 42.53875929232465, "lng": -83.64427008898066, "labeledLatLngs": [{"label": "display", "lat": 42.53875929232465, "lng": -83.64427008898066}], "cc": "US", "city": "Milford", "state": "MI", "country": "United States", "formattedAddress": ["Kent Lake Road", "Milford, MI", "United States"]}, "categories": [{"id": "5bae9231bedf3950379f89cd", "name": "Hill", "pluralName": "Hills", "shortName": "Hill", "icon": {"prefix": "https://ss3.4sqi.net/img/categories_v2/parks_outdoors/default_", "suffix": ".png"}, "primary": true}], "referralId": "v-1575904950", "hasPerk": false}], "confident": false, "geocode": {"what": "", "where": "university of michigan", "feature": {"cc": "US", "name": "University of Michigan", "displayName": "University of Michigan, MI, United States", "matchedName": "University of Michigan, MI, United States", "highlightedName": "<b>University of Michigan</b>, MI, United States", "woeType": 20, "id": "geonameid:5012988", "longId": "72057594042940924", "geometry": {"center": {"lat": 42.27587, "lng": -83.73605}, "bounds": {"ne": {"lat": 42.305026, "lng": -83.692548}, "sw": {"lat": 42.262691, "lng": -83.750299}}}}, "parents": []}}, "university of michigan, ann arbor5bae9231bedf3950379f89cd": {"venues": [{"id": "4f104fcce4b019e98fe6c12a", "name": "Genoa Township Sledding Hill", "location": {"lat": 42.55803269970229, "lng": -83.82464057910158, "labeledLatLngs": [{"label": "display", "lat": 42.55803269970229, "lng": -83.82464057910158}], "postalCode": "48116", "cc": "US", "city": "Brighton", "state": "MI", "country": "United States", "formattedAddress": ["Brighton, MI 48116", "United States"]}, "categories": [{"id": "5bae9231bedf3950379f89cd", "name": "Hill", "pluralName": "Hills", "shortName": "Hill", "icon": {"prefix": "https://ss3.4sqi.net/img/categories_v2/parks_outdoors/default_", "suffix": ".png"}, "primary": true}], "referralId": "v-1575905210", "hasPerk": false}, {"id": "580976c338fae81e990fdaa7", "name": "The Hill", "location": {"address": "9 Mile Road", "lat": 42.452816, "lng": -83.448074, "labeledLatLngs": [{"label": "display", "lat": 42.452816, "lng": -83.448074}], "postalCode": "48375", "cc": "US", "city": "Novi", "state": "MI", "country": "United States", "formattedAddress": ["9 Mile Road", "Novi, MI 48375", "United States"]}, "categories": [{"id": "5bae9231bedf3950379f89cd", "name": "Hill", "pluralName": "Hills", "shortName": "Hill", "icon": {"prefix": "https://ss3.4sqi.net/img/categories_v2/parks_outdoors/default_", "suffix": ".png"}, "primary": true}], "referralId": "v-1575905210", "hasPerk": false}, {"id": "50df5e71e4b0cf8b3b28404e", "name": "Plymouth Township Park Sledding Hill", "location": {"lat": 42.36807669244775, "lng": -83.5015715306379, "labeledLatLngs": [{"label": "display", "lat": 42.36807669244775, "lng": -83.5015715306379}], "postalCode": "48170", "cc": "US", "city": "Plymouth", "state": "MI", "country": "United States", "formattedAddress": ["Plymouth, MI 48170", "United States"]}, "categories": [{"id": "5bae9231bedf3950379f89cd", "name": "Hill", "pluralName": "Hills", "shortName": "Hill", "icon": {"prefix": "https://ss3.4sqi.net/img/categories_v2/parks_outdoors/default_", "suffix": ".png"}, "primary": true}], "referralId": "v-1575905210", "hasPerk": false}, {"id": "4d4466331ed56dcb8df9ae54", "name": "Kensington Metropark Sledding Hill", "location": {"address": "Kent Lake Road", "lat": 42.53875929232465, "lng": -83.64427008898066, "labeledLatLngs": [{"label": "display", "lat": 42.53875929232465, "lng": -83.64427008898066}], "cc": "US", "city": "Milford", "state": "MI", "country": "United States", "formattedAddress": ["Kent Lake Road", "Milford, MI", "United States"]}, "categories": [{"id": "5bae9231bedf3950379f89cd", "name": "Hill", "pluralName": "Hills", "shortName": "Hill", "icon": {"prefix": "https://ss3.4sqi.net/img/categories_v2/parks_outdoors/default_", "suffix": ".png"}, "primary": true}], "referralId": "v-1575905210", "hasPerk": false}], "confident": false, "geocode": {"what": "", "where": "university of michigan ann arbor", "feature": {"cc": "US", "name": "University of Michigan", "displayName": "University of Michigan, MI, United States", "matchedName": "University of Michigan - Ann Arbor, MI, United States", "highlightedName": "<b>University of Michigan - Ann Arbor</b>, MI, United States", "woeType": 20, "id": "geonameid:5012988", "longId": "72057594042940924", "geometry": {"center": {"lat": 42.27587, "lng": -83.73605}, "bounds": {"ne": {"lat": 42.305026, "lng": -83.692548}, "sw": {"lat": 42.262691, "lng": -83.750299}}}}, "parents": []}}, "university of michigan4bf58dd8d48988d16d941735": {"venues": [{"id": "4b69c1b3f964a52043b22be3", "name": "Revive", "location": {"address": "619 E University Ave", "crossStreet": "btw Willard St and S University Ave", "lat": 42.27427732866178, "lng": -83.73574530551036, "labeledLatLngs": [{"label": "display", "lat": 42.27427732866178, "lng": -83.73574530551036}], "postalCode": "48104", "cc": "US", "city": "Ann Arbor", "state": "MI", "country": "United States", "formattedAddress": ["619 E University Ave (btw Willard St and S University Ave)", "Ann Arbor, MI 48104", "United States"]}, "categories": [{"id": "4bf58dd8d48988d16d941735", "name": "Caf\u00e9", "pluralName": "Caf\u00e9s", "shortName": "Caf\u00e9", "icon": {"prefix": "https://ss3.4sqi.net/img/categories_v2/food/cafe_", "suffix": ".png"}, "primary": true}], "referralId": "v-1575909591", "hasPerk": false}, {"id": "5c5adce52f97ec002c2db92d", "name": "Sweetwaters Coffee & Tea Plymouth Green", "location": {"address": "3393 Plymouth Rd", "lat": 42.30519897, "lng": -83.69474335, "labeledLatLngs": [{"label": "display", "lat": 42.30519897, "lng": -83.69474335}], "postalCode": "48105", "cc": "US", "neighborhood": "Northeast Ann Arbor", "city": "Ann Arbor", "state": "MI", "country": "United States", "formattedAddress": ["3393 Plymouth Rd", "Ann Arbor, MI 48105", "United States"]}, "categories": [{"id": "4bf58dd8d48988d1e0931735", "name": "Coffee Shop", "pluralName": "Coffee Shops", "shortName": "Coffee Shop", "icon": {"prefix": "https://ss3.4sqi.net/img/categories_v2/food/coffeeshop_", "suffix": ".png"}, "primary": true}], "venuePage": {"id": "543103489"}, "referralId": "v-1575909591", "hasPerk": false}, {"id": "4b62e76af964a52016582ae3", "name": "Panera Bread", "location": {"address": "9430 Village Place Blvd", "lat": 42.503947, "lng": -83.755311, "labeledLatLngs": [{"label": "display", "lat": 42.503947, "lng": -83.755311}], "postalCode": "48116", "cc": "US", "city": "Brighton", "state": "MI", "country": "United States", "formattedAddress": ["9430 Village Place Blvd", "Brighton, MI 48116", "United States"]}, "categories": [{"id": "4bf58dd8d48988d16a941735", "name": "Bakery", "pluralName": "Bakeries", "shortName": "Bakery", "icon": {"prefix": "https://ss3.4sqi.net/img/categories_v2/food/bakery_", "suffix": ".png"}, "primary": true}], "delivery": {"id": "1247609", "url": "https://www.grubhub.com/restaurant/panera-bread-9430-village-place-blvd-brighton/1247609?affiliate=1131&utm_source=foursquare-affiliate-network&utm_medium=affiliate&utm_campaign=1131&utm_content=1247609", "provider": {"name": "grubhub", "icon": {"prefix": "https://fastly.4sqi.net/img/general/cap/", "sizes": [40, 50], "name": "/delivery_provider_grubhub_20180129.png"}}}, "referralId": "v-1575909591", "hasPerk": false}, {"id": "59e77c764f0e580345c0220d", "name": "Fields Caf\u00e9", "location": {"address": "Palmer Commons", "lat": 42.28044078502963, "lng": -83.73378669369974, "labeledLatLngs": [{"label": "display", "lat": 42.28044078502963, "lng": -83.73378669369974}], "postalCode": "48109", "cc": "US", "city": "Ann Arbor", "state": "MI", "country": "United States", "formattedAddress": ["Palmer Commons", "Ann Arbor, MI 48109", "United States"]}, "categories": [{"id": "4bf58dd8d48988d16d941735", "name": "Caf\u00e9", "pluralName": "Caf\u00e9s", "shortName": "Caf\u00e9", "icon": {"prefix": "https://ss3.4sqi.net/img/categories_v2/food/cafe_", "suffix": ".png"}, "primary": true}], "referralId": "v-1575909591", "hasPerk": false}, {"id": "4b49ec75f964a520107626e3", "name": "Panera Bread", "location": {"address": "400 S Main St", "lat": 42.369652, "lng": -83.469736, "labeledLatLngs": [{"label": "display", "lat": 42.369652, "lng": -83.469736}], "postalCode": "48170", "cc": "US", "city": "Plymouth", "state": "MI", "country": "United States", "formattedAddress": ["400 S Main St", "Plymouth, MI 48170", "United States"]}, "categories": [{"id": "4bf58dd8d48988d16a941735", "name": "Bakery", "pluralName": "Bakeries", "shortName": "Bakery", "icon": {"prefix": "https://ss3.4sqi.net/img/categories_v2/food/bakery_", "suffix": ".png"}, "primary": true}], "delivery": {"id": "1247801", "url": "https://www.grubhub.com/restaurant/panera-bread-400-s-main-st-plymouth/1247801?affiliate=1131&utm_source=foursquare-affiliate-network&utm_medium=affiliate&utm_campaign=1131&utm_content=1247801", "provider": {"name": "grubhub", "icon": {"prefix": "https://fastly.4sqi.net/img/general/cap/", "sizes": [40, 50], "name": "/delivery_provider_grubhub_20180129.png"}}}, "referralId": "v-1575909591", "hasPerk": false}, {"id": "4afd767df964a520f72722e3", "name": "Zingerman's Bakehouse", "location": {"address": "3711 Plaza Dr", "crossStreet": "Airport Dr", "lat": 42.232990408190744, "lng": -83.74777467516192, "labeledLatLngs": [{"label": "display", "lat": 42.232990408190744, "lng": -83.74777467516192}], "postalCode": "48108", "cc": "US", "city": "Ann Arbor", "state": "MI", "country": "United States", "formattedAddress": ["3711 Plaza Dr (Airport Dr)", "Ann Arbor, MI 48108", "United States"]}, "categories": [{"id": "4bf58dd8d48988d16a941735", "name": "Bakery", "pluralName": "Bakeries", "shortName": "Bakery", "icon": {"prefix": "https://ss3.4sqi.net/img/categories_v2/food/bakery_", "suffix": ".png"}, "primary": true}], "referralId": "v-1575909591", "hasPerk": false}, {"id": "4b27cfe7f964a520678a24e3", "name": "Panera Bread", "location": {"address": "37800 6 Mile Rd", "crossStreet": "at Newburgh Rd", "lat": 42.41148948976979, "lng": -83.41726005681801, "labeledLatLngs": [{"label": "display", "lat": 42.41148948976979, "lng": -83.41726005681801}], "postalCode": "48152", "cc": "US", "city": "Livonia", "state": "MI", "country": "United States", "formattedAddress": ["37800 6 Mile Rd (at Newburgh Rd)", "Livonia, MI 48152", "United States"]}, "categories": [{"id": "4bf58dd8d48988d16a941735", "name": "Bakery", "pluralName": "Bakeries", "shortName": "Bakery", "icon": {"prefix": "https://ss3.4sqi.net/img/categories_v2/food/bakery_", "suffix": ".png"}, "primary": true}], "delivery": {"id": "1119234", "url": "https://www.grubhub.com/restaurant/panera-bread-37800-6-mile-rd-livonia/1119234?affiliate=1131&utm_source=foursquare-affiliate-network&utm_medium=affiliate&utm_campaign=1131&utm_content=1119234", "provider": {"name": "grubhub", "icon": {"prefix": "https://fastly.4sqi.net/img/general/cap/", "sizes": [40, 50], "name": "/delivery_provider_grubhub_20180129.png"}}}, "referralId": "v-1575909591", "hasPerk": false}, {"id": "4bb7d947314e952185cf479d", "name": "Panera Bread", "location": {"address": "25875 Novi Rd", "lat": 42.479318, "lng": -83.476011, "labeledLatLngs": [{"label": "display", "lat": 42.479318, "lng": -83.476011}], "postalCode": "48375", "cc": "US", "city": "Novi", "state": "MI", "country": "United States", "formattedAddress": ["25875 Novi Rd", "Novi, MI 48375", "United States"]}, "categories": [{"id": "4bf58dd8d48988d16a941735", "name": "Bakery", "pluralName": "Bakeries", "shortName": "Bakery", "icon": {"prefix": "https://ss3.4sqi.net/img/categories_v2/food/bakery_", "suffix": ".png"}, "primary": true}], "delivery": {"id": "1251020", "url": "https://www.grubhub.com/restaurant/panera-bread-25875-novi-rd-novi/1251020?affiliate=1131&utm_source=foursquare-affiliate-network&utm_medium=affiliate&utm_campaign=1131&utm_content=1251020", "provider": {"name": "grubhub", "icon": {"prefix": "https://fastly.4sqi.net/img/general/cap/", "sizes": [40, 50], "name": "/delivery_provider_grubhub_20180129.png"}}}, "referralId": "v-1575909591", "hasPerk": false}, {"id": "4aeb6fcdf964a5200bc221e3", "name": "Panera Bread", "location": {"address": "5340 Jackson Rd", "lat": 42.288629, "lng": -83.834828, "labeledLatLngs": [{"label": "display", "lat": 42.288629, "lng": -83.834828}], "postalCode": "48103", "cc": "US", "city": "Ann Arbor", "state": "MI", "country": "United States", "formattedAddress": ["5340 Jackson Rd", "Ann Arbor, MI 48103", "United States"]}, "categories": [{"id": "4bf58dd8d48988d16a941735", "name": "Bakery", "pluralName": "Bakeries", "shortName": "Bakery", "icon": {"prefix": "https://ss3.4sqi.net/img/categories_v2/food/bakery_", "suffix": ".png"}, "primary": true}], "delivery": {"id": "1247334", "url": "https://www.grubhub.com/restaurant/panera-bread-5340-jackson-rd-ann-arbor/1247334?affiliate=1131&utm_source=foursquare-affiliate-network&utm_medium=affiliate&utm_campaign=1131&utm_content=1247334", "provider": {"name": "grubhub", "icon": {"prefix": "https://fastly.4sqi.net/img/general/cap/", "sizes": [40, 50], "name": "/delivery_provider_grubhub_20180129.png"}}}, "referralId": "v-1575909591", "hasPerk": false}, {"id": "4b62fa7cf964a520e75b2ae3", "name": "Zingerman's Coffee Company", "location": {"address": "3723 Plaza Dr", "lat": 42.232502303905626, "lng": -83.74838945823478, "labeledLatLngs": [{"label": "display", "lat": 42.232502303905626, "lng": -83.74838945823478}], "postalCode": "48108", "cc": "US", "city": "Ann Arbor", "state": "MI", "country": "United States", "formattedAddress": ["3723 Plaza Dr", "Ann Arbor, MI 48108", "United States"]}, "categories": [{"id": "4bf58dd8d48988d1e0931735", "name": "Coffee Shop", "pluralName": "Coffee Shops", "shortName": "Coffee Shop", "icon": {"prefix": "https://ss3.4sqi.net/img/categories_v2/food/coffeeshop_", "suffix": ".png"}, "primary": true}], "venuePage": {"id": "89367340"}, "referralId": "v-1575909591", "hasPerk": false}, {"id": "4b2d6c73f964a52061d624e3", "name": "Plum Market", "location": {"address": "375 Maple Rd", "crossStreet": "at Dexter", "lat": 42.28466623000963, "lng": -83.78159445742747, "labeledLatLngs": [{"label": "display", "lat": 42.28466623000963, "lng": -83.78159445742747}], "postalCode": "48103", "cc": "US", "city": "Ann Arbor", "state": "MI", "country": "United States", "formattedAddress": ["375 Maple Rd (at Dexter)", "Ann Arbor, MI 48103", "United States"]}, "categories": [{"id": "4bf58dd8d48988d118951735", "name": "Grocery Store", "pluralName": "Grocery Stores", "shortName": "Grocery Store", "icon": {"prefix": "https://ss3.4sqi.net/img/categories_v2/shops/food_grocery_", "suffix": ".png"}, "primary": true}], "delivery": {"id": "452128", "url": "https://www.grubhub.com/restaurant/plum-market-375-n-maple-rd-ann-arbor/452128?affiliate=1131&utm_source=foursquare-affiliate-network&utm_medium=affiliate&utm_campaign=1131&utm_content=452128", "provider": {"name": "grubhub", "icon": {"prefix": "https://fastly.4sqi.net/img/general/cap/", "sizes": [40, 50], "name": "/delivery_provider_grubhub_20180129.png"}}}, "referralId": "v-1575909591", "hasPerk": false}, {"id": "54c6d4da498e3fefe975c87a", "name": "Tim Hortons", "location": {"address": "38200 W 10 Mile Rd", "crossStreet": "Grand River Rd.", "lat": 42.4687097724938, "lng": -83.4238041937351, "labeledLatLngs": [{"label": "display", "lat": 42.4687097724938, "lng": -83.4238041937351}], "postalCode": "48335", "cc": "US", "city": "Farmington Hills", "state": "MI", "country": "United States", "formattedAddress": ["38200 W 10 Mile Rd (Grand River Rd.)", "Farmington Hills, MI 48335", "United States"]}, "categories": [{"id": "4bf58dd8d48988d1e0931735", "name": "Coffee Shop", "pluralName": "Coffee Shops", "shortName": "Coffee Shop", "icon": {"prefix": "https://ss3.4sqi.net/img/categories_v2/food/coffeeshop_", "suffix": ".png"}, "primary": true}], "referralId": "v-1575909591", "hasPerk": false}, {"id": "4bbbd824ed7776b0ef0a3f51", "name": "Zou Zou's", "location": {"address": "101 N Main St", "crossStreet": "W Middle St", "lat": 42.31810976317132, "lng": -84.0206226843444, "labeledLatLngs": [{"label": "display", "lat": 42.31810976317132, "lng": -84.0206226843444}], "postalCode": "48118", "cc": "US", "city": "Chelsea", "state": "MI", "country": "United States", "formattedAddress": ["101 N Main St (W Middle St)", "Chelsea, MI 48118", "United States"]}, "categories": [{"id": "4bf58dd8d48988d16d941735", "name": "Caf\u00e9", "pluralName": "Caf\u00e9s", "shortName": "Caf\u00e9", "icon": {"prefix": "https://ss3.4sqi.net/img/categories_v2/food/cafe_", "suffix": ".png"}, "primary": true}], "referralId": "v-1575909591", "hasPerk": false}, {"id": "524d8f4511d2f088920a1fca", "name": "Zola Bistro", "location": {"address": "3030 Washtenaw Ave #B101", "lat": 42.25708117112541, "lng": -83.69922665793162, "labeledLatLngs": [{"label": "display", "lat": 42.25708117112541, "lng": -83.69922665793162}], "postalCode": "48104", "cc": "US", "city": "Ann Arbor", "state": "MI", "country": "United States", "formattedAddress": ["3030 Washtenaw Ave #B101", "Ann Arbor, MI 48104", "United States"]}, "categories": [{"id": "4bf58dd8d48988d16d941735", "name": "Caf\u00e9", "pluralName": "Caf\u00e9s", "shortName": "Caf\u00e9", "icon": {"prefix": "https://ss3.4sqi.net/img/categories_v2/food/cafe_", "suffix": ".png"}, "primary": true}], "venuePage": {"id": "198122171"}, "referralId": "v-1575909591", "hasPerk": false}, {"id": "56322e42498ec64310ac5b76", "name": "Plum Market", "location": {"address": "3601 Plymouth Rd", "crossStreet": "Green Road", "lat": 42.30584057758716, "lng": -83.69102830477632, "labeledLatLngs": [{"label": "display", "lat": 42.30584057758716, "lng": -83.69102830477632}], "postalCode": "48105", "cc": "US", "neighborhood": "Northeast Ann Arbor", "city": "Ann Arbor", "state": "MI", "country": "United States", "formattedAddress": ["3601 Plymouth Rd (Green Road)", "Ann Arbor, MI 48105", "United States"]}, "categories": [{"id": "4bf58dd8d48988d118951735", "name": "Grocery Store", "pluralName": "Grocery Stores", "shortName": "Grocery Store", "icon": {"prefix": "https://ss3.4sqi.net/img/categories_v2/shops/food_grocery_", "suffix": ".png"}, "primary": true}], "delivery": {"id": "452118", "url": "https://www.grubhub.com/restaurant/plum-market-3601-plymouth-rd-ann-arbor/452118?affiliate=1131&utm_source=foursquare-affiliate-network&utm_medium=affiliate&utm_campaign=1131&utm_content=452118", "provider": {"name": "grubhub", "icon": {"prefix": "https://fastly.4sqi.net/img/general/cap/", "sizes": [40, 50], "name": "/delivery_provider_grubhub_20180129.png"}}}, "referralId": "v-1575909591", "hasPerk": false}, {"id": "4af44b4cf964a52018f121e3", "name": "Panera Bread", "location": {"address": "777 N University Ave", "lat": 42.27879201687151, "lng": -83.73971208930016, "labeledLatLngs": [{"label": "display", "lat": 42.27879201687151, "lng": -83.73971208930016}], "postalCode": "48104", "cc": "US", "city": "Ann Arbor", "state": "MI", "country": "United States", "formattedAddress": ["777 N University Ave", "Ann Arbor, MI 48104", "United States"]}, "categories": [{"id": "4bf58dd8d48988d16a941735", "name": "Bakery", "pluralName": "Bakeries", "shortName": "Bakery", "icon": {"prefix": "https://ss3.4sqi.net/img/categories_v2/food/bakery_", "suffix": ".png"}, "primary": true}], "delivery": {"id": "1247804", "url": "https://www.grubhub.com/restaurant/panera-bread-777-n-university-ave-ann-arbor/1247804?affiliate=1131&utm_source=foursquare-affiliate-network&utm_medium=affiliate&utm_campaign=1131&utm_content=1247804", "provider": {"name": "grubhub", "icon": {"prefix": "https://fastly.4sqi.net/img/general/cap/", "sizes": [40, 50], "name": "/delivery_provider_grubhub_20180129.png"}}}, "referralId": "v-1575909591", "hasPerk": false}, {"id": "5998735909e2837b2f45a953", "name": "Argus Farm Stop", "location": {"address": "1200 Packard St", "crossStreet": "Wells", "lat": 42.26587939965648, "lng": -83.7353114110992, "labeledLatLngs": [{"label": "display", "lat": 42.26587939965648, "lng": -83.7353114110992}], "postalCode": "48104", "cc": "US", "city": "Ann Arbor", "state": "MI", "country": "United States", "formattedAddress": ["1200 Packard St (Wells)", "Ann Arbor, MI 48104", "United States"]}, "categories": [{"id": "50be8ee891d4fa8dcc7199a7", "name": "Market", "pluralName": "Markets", "shortName": "Market", "icon": {"prefix": "https://ss3.4sqi.net/img/categories_v2/shops/market_", "suffix": ".png"}, "primary": true}], "referralId": "v-1575909591", "hasPerk": false}, {"id": "54621d61498e61eb8da14145", "name": "illy espressamente", "location": {"address": "Gate A40, Concourse A, McNamara Terminal", "crossStreet": "DTW Airport", "lat": 42.20840383560772, "lng": -83.35750249699358, "labeledLatLngs": [{"label": "display", "lat": 42.20840383560772, "lng": -83.35750249699358}], "postalCode": "48242", "cc": "US", "city": "Detroit", "state": "MI", "country": "United States", "formattedAddress": ["Gate A40, Concourse A, McNamara Terminal (DTW Airport)", "Detroit, MI 48242", "United States"]}, "categories": [{"id": "4bf58dd8d48988d1e0931735", "name": "Coffee Shop", "pluralName": "Coffee Shops", "shortName": "Coffee Shop", "icon": {"prefix": "https://ss3.4sqi.net/img/categories_v2/food/coffeeshop_", "suffix": ".png"}, "primary": true}], "referralId": "v-1575909591", "hasPerk": false}, {"id": "44b64621f964a52064351fe3", "name": "Espresso Royale Cafe", "location": {"address": "324 S State St", "crossStreet": "William St.", "lat": 42.27851061901177, "lng": -83.74064055907813, "labeledLatLngs": [{"label": "display", "lat": 42.27851061901177, "lng": -83.74064055907813}], "postalCode": "48104", "cc": "US", "city": "Ann Arbor", "state": "MI", "country": "United States", "formattedAddress": ["324 S State St (William St.)", "Ann Arbor, MI 48104", "United States"]}, "categories": [{"id": "4bf58dd8d48988d1e0931735", "name": "Coffee Shop", "pluralName": "Coffee Shops", "shortName": "Coffee Shop", "icon": {"prefix": "https://ss3.4sqi.net/img/categories_v2/food/coffeeshop_", "suffix": ".png"}, "primary": true}], "delivery": {"id": "1512102", "url": "https://www.grubhub.com/restaurant/espresso-royale-324-south-state-street-ann-arbor/1512102?affiliate=1131&utm_source=foursquare-affiliate-network&utm_medium=affiliate&utm_campaign=1131&utm_content=1512102", "provider": {"name": "grubhub", "icon": {"prefix": "https://fastly.4sqi.net/img/general/cap/", "sizes": [40, 50], "name": "/delivery_provider_grubhub_20180129.png"}}}, "referralId": "v-1575909591", "hasPerk": false}, {"id": "45f46a8bf964a520fd431fe3", "name": "Sweetwaters Coffee & Tea", "location": {"address": "407 N 5th Ave", "lat": 42.28442590637955, "lng": -83.74601949513541, "labeledLatLngs": [{"label": "display", "lat": 42.28442590637955, "lng": -83.74601949513541}], "postalCode": "48104", "cc": "US", "city": "Ann Arbor", "state": "MI", "country": "United States", "formattedAddress": ["407 N 5th Ave", "Ann Arbor, MI 48104", "United States"]}, "categories": [{"id": "4bf58dd8d48988d1e0931735", "name": "Coffee Shop", "pluralName": "Coffee Shops", "shortName": "Coffee Shop", "icon": {"prefix": "https://ss3.4sqi.net/img/categories_v2/food/coffeeshop_", "suffix": ".png"}, "primary": true}], "venuePage": {"id": "546356988"}, "referralId": "v-1575909591", "hasPerk": false}, {"id": "44a12e63f964a520cc341fe3", "name": "Caf\u00e9 Zola", "location": {"address": "112 W Washington St", "crossStreet": "Main St", "lat": 42.28057082480373, "lng": -83.74930767563866, "labeledLatLngs": [{"label": "display", "lat": 42.28057082480373, "lng": -83.74930767563866}], "postalCode": "48104", "cc": "US", "city": "Ann Arbor", "state": "MI", "country": "United States", "formattedAddress": ["112 W Washington St (Main St)", "Ann Arbor, MI 48104", "United States"]}, "categories": [{"id": "4bf58dd8d48988d16d941735", "name": "Caf\u00e9", "pluralName": "Caf\u00e9s", "shortName": "Caf\u00e9", "icon": {"prefix": "https://ss3.4sqi.net/img/categories_v2/food/cafe_", "suffix": ".png"}, "primary": true}], "referralId": "v-1575909591", "hasPerk": false}, {"id": "4a9ea6c6f964a520c83a20e3", "name": "Glass House Cafe & Catering", "location": {"address": "100 Washtenaw Ave", "lat": 42.28048574436752, "lng": -83.73383073687884, "labeledLatLngs": [{"label": "display", "lat": 42.28048574436752, "lng": -83.73383073687884}], "postalCode": "48109", "cc": "US", "city": "Ann Arbor", "state": "MI", "country": "United States", "formattedAddress": ["100 Washtenaw Ave", "Ann Arbor, MI 48109", "United States"]}, "categories": [{"id": "4bf58dd8d48988d16d941735", "name": "Caf\u00e9", "pluralName": "Caf\u00e9s", "shortName": "Caf\u00e9", "icon": {"prefix": "https://ss3.4sqi.net/img/categories_v2/food/cafe_", "suffix": ".png"}, "primary": true}], "referralId": "v-1575909591", "hasPerk": false}, {"id": "4ba8f6f6f964a52071fe39e3", "name": "Lab", "location": {"address": "505 E Liberty St Ste 300", "crossStreet": "at Thompson St", "lat": 42.27949666495278, "lng": -83.7426415939773, "labeledLatLngs": [{"label": "display", "lat": 42.27949666495278, "lng": -83.7426415939773}], "postalCode": "48104", "cc": "US", "city": "Ann Arbor", "state": "MI", "country": "United States", "formattedAddress": ["505 E Liberty St Ste 300 (at Thompson St)", "Ann Arbor, MI 48104", "United States"]}, "categories": [{"id": "4bf58dd8d48988d1e0931735", "name": "Coffee Shop", "pluralName": "Coffee Shops", "shortName": "Coffee Shop", "icon": {"prefix": "https://ss3.4sqi.net/img/categories_v2/food/coffeeshop_", "suffix": ".png"}, "primary": true}], "referralId": "v-1575909591", "hasPerk": false}, {"id": "4aee039df964a52051d121e3", "name": "Sweetwaters Coffee & Tea", "location": {"address": "123 W Washington St", "crossStreet": "at S Ashley St", "lat": 42.280440528968924, "lng": -83.74978619252411, "labeledLatLngs": [{"label": "display", "lat": 42.280440528968924, "lng": -83.74978619252411}], "postalCode": "48104", "cc": "US", "neighborhood": "Downtown Ann Arbor", "city": "Ann Arbor", "state": "MI", "country": "United States", "formattedAddress": ["123 W Washington St (at S Ashley St)", "Ann Arbor, MI 48104", "United States"]}, "categories": [{"id": "4bf58dd8d48988d1e0931735", "name": "Coffee Shop", "pluralName": "Coffee Shops", "shortName": "Coffee Shop", "icon": {"prefix": "https://ss3.4sqi.net/img/categories_v2/food/coffeeshop_", "suffix": ".png"}, "primary": true}], "venuePage": {"id": "548109326"}, "referralId": "v-1575909591", "hasPerk": false}, {"id": "4bb8f34d314e952169f7489d", "name": "Zingerman's Next Door", "location": {"address": "422 Detroit St", "crossStreet": "at E Kingsley St.", "lat": 42.28458802433622, "lng": -83.74526025990117, "labeledLatLngs": [{"label": "display", "lat": 42.28458802433622, "lng": -83.74526025990117}], "postalCode": "48104", "cc": "US", "city": "Ann Arbor", "state": "MI", "country": "United States", "formattedAddress": ["422 Detroit St (at E Kingsley St.)", "Ann Arbor, MI 48104", "United States"]}, "categories": [{"id": "4bf58dd8d48988d16d941735", "name": "Caf\u00e9", "pluralName": "Caf\u00e9s", "shortName": "Caf\u00e9", "icon": {"prefix": "https://ss3.4sqi.net/img/categories_v2/food/cafe_", "suffix": ".png"}, "primary": true}], "referralId": "v-1575909591", "hasPerk": false}], "confident": false, "geocode": {"what": "", "where": "university of michigan", "feature": {"cc": "US", "name": "University of Michigan", "displayName": "University of Michigan, MI, United States", "matchedName": "University of Michigan, MI, United States", "highlightedName": "<b>University of Michigan</b>, MI, United States", "woeType": 20, "id": "geonameid:5012988", "longId": "72057594042940924", "geometry": {"center": {"lat": 42.27587, "lng": -83.73605}, "bounds": {"ne": {"lat": 42.305026, "lng": -83.692548}, "sw": {"lat": 42.262691, "lng": -83.750299}}}}, "parents": []}}, "chicago4bf58dd8d48988d16d941735": {"venues": [{"id": "42d84e00f964a52028261fe3", "name": "Lula Caf\u00e9", "location": {"address": "2537 N Kedzie Blvd", "crossStreet": "btwn Linden & Logan Sq.", "lat": 41.927746625918466, "lng": -87.70705775217938, "labeledLatLngs": [{"label": "display", "lat": 41.927746625918466, "lng": -87.70705775217938}], "postalCode": "60647", "cc": "US", "city": "Chicago", "state": "IL", "country": "United States", "formattedAddress": ["2537 N Kedzie Blvd (btwn Linden & Logan Sq.)", "Chicago, IL 60647", "United States"]}, "categories": [{"id": "4bf58dd8d48988d16d941735", "name": "Caf\u00e9", "pluralName": "Caf\u00e9s", "shortName": "Caf\u00e9", "icon": {"prefix": "https://ss3.4sqi.net/img/categories_v2/food/cafe_", "suffix": ".png"}, "primary": true}], "referralId": "v-1575940046", "hasPerk": false}, {"id": "4234d400f964a5200f201fe3", "name": "Intelligentsia Coffee", "location": {"address": "3123 N Broadway St", "crossStreet": "at W Barry Ave", "lat": 41.93822555670059, "lng": -87.64438104903724, "labeledLatLngs": [{"label": "display", "lat": 41.93822555670059, "lng": -87.64438104903724}], "postalCode": "60657", "cc": "US", "city": "Chicago", "state": "IL", "country": "United States", "formattedAddress": ["3123 N Broadway St (at W Barry Ave)", "Chicago, IL 60657", "United States"]}, "categories": [{"id": "4bf58dd8d48988d1e0931735", "name": "Coffee Shop", "pluralName": "Coffee Shops", "shortName": "Coffee Shop", "icon": {"prefix": "https://ss3.4sqi.net/img/categories_v2/food/coffeeshop_", "suffix": ".png"}, "primary": true}], "referralId": "v-1575940046", "hasPerk": false}, {"id": "592f142acf72a063b395cb43", "name": "Nutella Cafe", "location": {"address": "189 N Michigan Avenue", "lat": 41.88559525878139, "lng": -87.62447569769371, "labeledLatLngs": [{"label": "display", "lat": 41.88559525878139, "lng": -87.62447569769371}], "postalCode": "60601", "cc": "US", "neighborhood": "The Loop", "city": "Chicago", "state": "IL", "country": "United States", "formattedAddress": ["189 N Michigan Avenue", "Chicago, IL 60601", "United States"]}, "categories": [{"id": "4bf58dd8d48988d16d941735", "name": "Caf\u00e9", "pluralName": "Caf\u00e9s", "shortName": "Caf\u00e9", "icon": {"prefix": "https://ss3.4sqi.net/img/categories_v2/food/cafe_", "suffix": ".png"}, "primary": true}], "referralId": "v-1575940046", "hasPerk": false}, {"id": "56199b9f498e26fd033cbe10", "name": "3 Arts Club Cafe", "location": {"address": "1300 N Dearborn St", "crossStreet": "at W Goethe St", "lat": 41.9058, "lng": -87.63047, "labeledLatLngs": [{"label": "display", "lat": 41.9058, "lng": -87.63047}], "postalCode": "60610", "cc": "US", "neighborhood": "Gold Coast", "city": "Chicago", "state": "IL", "country": "United States", "formattedAddress": ["1300 N Dearborn St (at W Goethe St)", "Chicago, IL 60610", "United States"]}, "categories": [{"id": "4bf58dd8d48988d16d941735", "name": "Caf\u00e9", "pluralName": "Caf\u00e9s", "shortName": "Caf\u00e9", "icon": {"prefix": "https://ss3.4sqi.net/img/categories_v2/food/cafe_", "suffix": ".png"}, "primary": true}], "referralId": "v-1575940046", "hasPerk": false}, {"id": "4ed3dd7e93ad987b5112d29f", "name": "Panera Bread", "location": {"address": "2 N Michigan Ave", "lat": 41.882228, "lng": -87.6247027, "labeledLatLngs": [{"label": "display", "lat": 41.882228, "lng": -87.6247027}], "postalCode": "60602", "cc": "US", "city": "Chicago", "state": "IL", "country": "United States", "formattedAddress": ["2 N Michigan Ave", "Chicago, IL 60602", "United States"]}, "categories": [{"id": "4bf58dd8d48988d16a941735", "name": "Bakery", "pluralName": "Bakeries", "shortName": "Bakery", "icon": {"prefix": "https://ss3.4sqi.net/img/categories_v2/food/bakery_", "suffix": ".png"}, "primary": true}], "referralId": "v-1575940046", "hasPerk": false}, {"id": "57bb7701498eb5ac6831ec93", "name": "Goddess and the Baker", "location": {"address": "225 N Lasalle St", "lat": 41.88710835679483, "lng": -87.63227770968568, "labeledLatLngs": [{"label": "display", "lat": 41.88710835679483, "lng": -87.63227770968568}], "postalCode": "60601", "cc": "US", "city": "Chicago", "state": "IL", "country": "United States", "formattedAddress": ["225 N Lasalle St", "Chicago, IL 60601", "United States"]}, "categories": [{"id": "4bf58dd8d48988d1e0931735", "name": "Coffee Shop", "pluralName": "Coffee Shops", "shortName": "Coffee Shop", "icon": {"prefix": "https://ss3.4sqi.net/img/categories_v2/food/coffeeshop_", "suffix": ".png"}, "primary": true}], "referralId": "v-1575940046", "hasPerk": false}, {"id": "553977b7498eb9779dcb0592", "name": "Goddess and The Baker", "location": {"address": "33 S Wabash Ave", "lat": 41.8813047949221, "lng": -87.62611682811053, "labeledLatLngs": [{"label": "display", "lat": 41.8813047949221, "lng": -87.62611682811053}], "postalCode": "60603", "cc": "US", "city": "Chicago", "state": "IL", "country": "United States", "formattedAddress": ["33 S Wabash Ave", "Chicago, IL 60603", "United States"]}, "categories": [{"id": "4bf58dd8d48988d16d941735", "name": "Caf\u00e9", "pluralName": "Caf\u00e9s", "shortName": "Caf\u00e9", "icon": {"prefix": "https://ss3.4sqi.net/img/categories_v2/food/cafe_", "suffix": ".png"}, "primary": true}], "referralId": "v-1575940046", "hasPerk": false}, {"id": "56290b27498e2c6aacd233fe", "name": "Beatrix", "location": {"address": "671 N. St. Clair", "crossStreet": "Erie and N. St. Clair", "lat": 41.89442501737263, "lng": -87.62253763566616, "labeledLatLngs": [{"label": "display", "lat": 41.89442501737263, "lng": -87.62253763566616}], "postalCode": "60611", "cc": "US", "city": "Chicago", "state": "IL", "country": "United States", "formattedAddress": ["671 N. St. Clair (Erie and N. St. Clair)", "Chicago, IL 60611", "United States"]}, "categories": [{"id": "4bf58dd8d48988d157941735", "name": "New American Restaurant", "pluralName": "New American Restaurants", "shortName": "New American", "icon": {"prefix": "https://ss3.4sqi.net/img/categories_v2/food/newamerican_", "suffix": ".png"}, "primary": true}], "delivery": {"id": "691773", "url": "https://www.grubhub.com/restaurant/beatrix-streeterville-671-n-saint-clair-st-chicago/691773?affiliate=1131&utm_source=foursquare-affiliate-network&utm_medium=affiliate&utm_campaign=1131&utm_content=691773", "provider": {"name": "grubhub", "icon": {"prefix": "https://fastly.4sqi.net/img/general/cap/", "sizes": [40, 50], "name": "/delivery_provider_grubhub_20180129.png"}}}, "referralId": "v-1575940046", "hasPerk": false}, {"id": "578c1327498e097eb3231b5b", "name": "Estereo", "location": {"address": "2450 N Milwaukee Ave", "crossStreet": "Sacramento", "lat": 41.925778171830075, "lng": -87.70221144472752, "labeledLatLngs": [{"label": "display", "lat": 41.925778171830075, "lng": -87.70221144472752}], "postalCode": "60647", "cc": "US", "neighborhood": "Logan Square", "city": "Chicago", "state": "IL", "country": "United States", "formattedAddress": ["2450 N Milwaukee Ave (Sacramento)", "Chicago, IL 60647", "United States"]}, "categories": [{"id": "4bf58dd8d48988d121941735", "name": "Lounge", "pluralName": "Lounges", "shortName": "Lounge", "icon": {"prefix": "https://ss3.4sqi.net/img/categories_v2/nightlife/default_", "suffix": ".png"}, "primary": true}], "referralId": "v-1575940046", "hasPerk": false}, {"id": "56bbd959498e181784fe9445", "name": "3 Greens Market", "location": {"address": "354 W Hubbard St", "crossStreet": "Orleans", "lat": 41.88993666774925, "lng": -87.6378863660802, "labeledLatLngs": [{"label": "display", "lat": 41.88993666774925, "lng": -87.6378863660802}], "postalCode": "60654", "cc": "US", "city": "Chicago", "state": "IL", "country": "United States", "formattedAddress": ["354 W Hubbard St (Orleans)", "Chicago, IL 60654", "United States"]}, "categories": [{"id": "4bf58dd8d48988d16d941735", "name": "Caf\u00e9", "pluralName": "Caf\u00e9s", "shortName": "Caf\u00e9", "icon": {"prefix": "https://ss3.4sqi.net/img/categories_v2/food/cafe_", "suffix": ".png"}, "primary": true}], "referralId": "v-1575940046", "hasPerk": false}, {"id": "53d6e989498e6c43226aea3d", "name": "The Allis", "location": {"address": "113-125 N Green St", "crossStreet": "at W Randolph St", "lat": 41.88393303213708, "lng": -87.64855264707009, "labeledLatLngs": [{"label": "display", "lat": 41.88393303213708, "lng": -87.64855264707009}], "postalCode": "60607", "cc": "US", "city": "Chicago", "state": "IL", "country": "United States", "formattedAddress": ["113-125 N Green St (at W Randolph St)", "Chicago, IL 60607", "United States"]}, "categories": [{"id": "4bf58dd8d48988d16d941735", "name": "Caf\u00e9", "pluralName": "Caf\u00e9s", "shortName": "Caf\u00e9", "icon": {"prefix": "https://ss3.4sqi.net/img/categories_v2/food/cafe_", "suffix": ".png"}, "primary": true}], "venuePage": {"id": "544708612"}, "referralId": "v-1575940046", "hasPerk": false}, {"id": "4a5bc165f964a520b9bb1fe3", "name": "Intelligentsia Coffee", "location": {"address": "53 E Randolph St", "crossStreet": "btwn Wabash Ave & Garland Ct", "lat": 41.88451693392431, "lng": -87.62578251254217, "labeledLatLngs": [{"label": "display", "lat": 41.88451693392431, "lng": -87.62578251254217}], "postalCode": "60601", "cc": "US", "city": "Chicago", "state": "IL", "country": "United States", "formattedAddress": ["53 E Randolph St (btwn Wabash Ave & Garland Ct)", "Chicago, IL 60601", "United States"]}, "categories": [{"id": "4bf58dd8d48988d1e0931735", "name": "Coffee Shop", "pluralName": "Coffee Shops", "shortName": "Coffee Shop", "icon": {"prefix": "https://ss3.4sqi.net/img/categories_v2/food/coffeeshop_", "suffix": ".png"}, "primary": true}], "referralId": "v-1575940046", "hasPerk": false}, {"id": "51c35556abd80c6e8f6a753b", "name": "Plum Market", "location": {"address": "1233 N Wells St", "crossStreet": "at W Goethe St", "lat": 41.90500394354937, "lng": -87.634421296121, "labeledLatLngs": [{"label": "display", "lat": 41.90500394354937, "lng": -87.634421296121}], "postalCode": "60610", "cc": "US", "city": "Chicago", "state": "IL", "country": "United States", "formattedAddress": ["1233 N Wells St (at W Goethe St)", "Chicago, IL 60610", "United States"]}, "categories": [{"id": "4bf58dd8d48988d118951735", "name": "Grocery Store", "pluralName": "Grocery Stores", "shortName": "Grocery Store", "icon": {"prefix": "https://ss3.4sqi.net/img/categories_v2/shops/food_grocery_", "suffix": ".png"}, "primary": true}], "delivery": {"id": "406847", "url": "https://www.grubhub.com/restaurant/plum-market-1233-n-wells-st-chicago/406847?affiliate=1131&utm_source=foursquare-affiliate-network&utm_medium=affiliate&utm_campaign=1131&utm_content=406847", "provider": {"name": "grubhub", "icon": {"prefix": "https://fastly.4sqi.net/img/general/cap/", "sizes": [40, 50], "name": "/delivery_provider_grubhub_20180129.png"}}}, "referralId": "v-1575940046", "hasPerk": false}, {"id": "57b485e1498e8f5a79049391", "name": "Revival Cafe-Bar RCB", "location": {"address": "125 S Clark St", "crossStreet": "W Adams St", "lat": 41.879534074819816, "lng": -87.63063625141754, "labeledLatLngs": [{"label": "display", "lat": 41.879534074819816, "lng": -87.63063625141754}], "postalCode": "60603", "cc": "US", "city": "Chicago", "state": "IL", "country": "United States", "formattedAddress": ["125 S Clark St (W Adams St)", "Chicago, IL 60603", "United States"]}, "categories": [{"id": "4bf58dd8d48988d16d941735", "name": "Caf\u00e9", "pluralName": "Caf\u00e9s", "shortName": "Caf\u00e9", "icon": {"prefix": "https://ss3.4sqi.net/img/categories_v2/food/cafe_", "suffix": ".png"}, "primary": true}], "referralId": "v-1575940046", "hasPerk": false}, {"id": "573b2c3238faeff59fd2cc36", "name": "Caf\u00e9 Nordstrom", "location": {"address": "55 E Grand Ave", "lat": 41.891382150034076, "lng": -87.62636035680771, "labeledLatLngs": [{"label": "display", "lat": 41.891382150034076, "lng": -87.62636035680771}], "postalCode": "60611", "cc": "US", "city": "Chicago", "state": "IL", "country": "United States", "formattedAddress": ["55 E Grand Ave", "Chicago, IL 60611", "United States"]}, "categories": [{"id": "4bf58dd8d48988d16d941735", "name": "Caf\u00e9", "pluralName": "Caf\u00e9s", "shortName": "Caf\u00e9", "icon": {"prefix": "https://ss3.4sqi.net/img/categories_v2/food/cafe_", "suffix": ".png"}, "primary": true}], "referralId": "v-1575940046", "hasPerk": false}, {"id": "4af42ee0f964a52073f021e3", "name": "Pierrot Gourmet", "location": {"address": "108 E Superior St", "crossStreet": "The Peninsula", "lat": 41.895872384137746, "lng": -87.62540618747774, "labeledLatLngs": [{"label": "display", "lat": 41.895872384137746, "lng": -87.62540618747774}], "postalCode": "60611", "cc": "US", "city": "Chicago", "state": "IL", "country": "United States", "formattedAddress": ["108 E Superior St (The Peninsula)", "Chicago, IL 60611", "United States"]}, "categories": [{"id": "4bf58dd8d48988d16d941735", "name": "Caf\u00e9", "pluralName": "Caf\u00e9s", "shortName": "Caf\u00e9", "icon": {"prefix": "https://ss3.4sqi.net/img/categories_v2/food/cafe_", "suffix": ".png"}, "primary": true}], "venuePage": {"id": "36027104"}, "referralId": "v-1575940046", "hasPerk": false}, {"id": "5329cad8498e42386162a7fb", "name": "Plein Air Cafe & Eatery", "location": {"address": "5751 S Woodlawn Ave", "crossStreet": "btwn E 57th St & E 58th St", "lat": 41.789898247412786, "lng": -87.5961439110726, "labeledLatLngs": [{"label": "display", "lat": 41.789898247412786, "lng": -87.5961439110726}], "postalCode": "60637", "cc": "US", "neighborhood": "Hyde Park", "city": "Chicago", "state": "IL", "country": "United States", "formattedAddress": ["5751 S Woodlawn Ave (btwn E 57th St & E 58th St)", "Chicago, IL 60637", "United States"]}, "categories": [{"id": "4bf58dd8d48988d16d941735", "name": "Caf\u00e9", "pluralName": "Caf\u00e9s", "shortName": "Caf\u00e9", "icon": {"prefix": "https://ss3.4sqi.net/img/categories_v2/food/cafe_", "suffix": ".png"}, "primary": true}], "referralId": "v-1575940046", "hasPerk": false}, {"id": "4bfc4f24d6f2c9b6c7034fc8", "name": "Stefani's Tuscany Cafe", "location": {"address": "Terminal 1, Concourse B", "crossStreet": "ORD Airport", "lat": 41.98117685782228, "lng": -87.90591891208074, "labeledLatLngs": [{"label": "display", "lat": 41.98117685782228, "lng": -87.90591891208074}], "postalCode": "60666", "cc": "US", "city": "Chicago", "state": "IL", "country": "United States", "formattedAddress": ["Terminal 1, Concourse B (ORD Airport)", "Chicago, IL 60666", "United States"]}, "categories": [{"id": "4bf58dd8d48988d110941735", "name": "Italian Restaurant", "pluralName": "Italian Restaurants", "shortName": "Italian", "icon": {"prefix": "https://ss3.4sqi.net/img/categories_v2/food/italian_", "suffix": ".png"}, "primary": true}], "referralId": "v-1575940046", "hasPerk": false}, {"id": "5d8634a59a5e5200089b5f94", "name": "Philz Coffee", "location": {"address": "2335 N Lincoln Ave", "crossStreet": "Fullerton", "lat": 41.924879, "lng": -87.647094, "labeledLatLngs": [{"label": "display", "lat": 41.924879, "lng": -87.647094}], "postalCode": "60614", "cc": "US", "city": "Chicago", "state": "IL", "country": "United States", "formattedAddress": ["2335 N Lincoln Ave (Fullerton)", "Chicago, IL 60614", "United States"]}, "categories": [{"id": "4bf58dd8d48988d1e0931735", "name": "Coffee Shop", "pluralName": "Coffee Shops", "shortName": "Coffee Shop", "icon": {"prefix": "https://ss3.4sqi.net/img/categories_v2/food/coffeeshop_", "suffix": ".png"}, "primary": true}], "referralId": "v-1575940046", "hasPerk": false}, {"id": "59403be49d6a19708d26f0b1", "name": "Mojo Coffee", "location": {"address": "200 S Wacker Dr", "lat": 41.87909388729218, "lng": -87.6367400852703, "labeledLatLngs": [{"label": "display", "lat": 41.87909388729218, "lng": -87.6367400852703}], "postalCode": "60606", "cc": "US", "city": "Chicago", "state": "IL", "country": "United States", "formattedAddress": ["200 S Wacker Dr", "Chicago, IL 60606", "United States"]}, "categories": [{"id": "4bf58dd8d48988d1e0931735", "name": "Coffee Shop", "pluralName": "Coffee Shops", "shortName": "Coffee Shop", "icon": {"prefix": "https://ss3.4sqi.net/img/categories_v2/food/coffeeshop_", "suffix": ".png"}, "primary": true}], "referralId": "v-1575940046", "hasPerk": false}, {"id": "49d51ce3f964a520675c1fe3", "name": "Intelligentsia Coffee", "location": {"address": "53 W Jackson Blvd", "crossStreet": "at S Dearborn St", "lat": 41.87809169951115, "lng": -87.62961497685731, "labeledLatLngs": [{"label": "display", "lat": 41.87809169951115, "lng": -87.62961497685731}], "postalCode": "60604", "cc": "US", "city": "Chicago", "state": "IL", "country": "United States", "formattedAddress": ["53 W Jackson Blvd (at S Dearborn St)", "Chicago, IL 60604", "United States"]}, "categories": [{"id": "4bf58dd8d48988d1e0931735", "name": "Coffee Shop", "pluralName": "Coffee Shops", "shortName": "Coffee Shop", "icon": {"prefix": "https://ss3.4sqi.net/img/categories_v2/food/coffeeshop_", "suffix": ".png"}, "primary": true}], "referralId": "v-1575940046", "hasPerk": false}, {"id": "4dfcd715fa76c83b6e7e08f8", "name": "La Colombe Torrefaction", "location": {"address": "955 W Randolph St", "crossStreet": "at Morgan St", "lat": 41.884061943770284, "lng": -87.65192180871964, "labeledLatLngs": [{"label": "display", "lat": 41.884061943770284, "lng": -87.65192180871964}], "postalCode": "60607", "cc": "US", "city": "Chicago", "state": "IL", "country": "United States", "formattedAddress": ["955 W Randolph St (at Morgan St)", "Chicago, IL 60607", "United States"]}, "categories": [{"id": "4bf58dd8d48988d1e0931735", "name": "Coffee Shop", "pluralName": "Coffee Shops", "shortName": "Coffee Shop", "icon": {"prefix": "https://ss3.4sqi.net/img/categories_v2/food/coffeeshop_", "suffix": ".png"}, "primary": true}], "referralId": "v-1575940046", "hasPerk": false}, {"id": "51786a1ce4b0b2116246e7e8", "name": "Intelligentsia Coffee Bar", "location": {"address": "2642 N Milwaukee Ave", "crossStreet": "btwn N Sawyer Ave & N Kedzie Ave", "lat": 41.92977820743028, "lng": -87.70847643906521, "labeledLatLngs": [{"label": "display", "lat": 41.92977820743028, "lng": -87.70847643906521}], "postalCode": "60647", "cc": "US", "city": "Chicago", "state": "IL", "country": "United States", "formattedAddress": ["2642 N Milwaukee Ave (btwn N Sawyer Ave & N Kedzie Ave)", "Chicago, IL 60647", "United States"]}, "categories": [{"id": "4bf58dd8d48988d1e0931735", "name": "Coffee Shop", "pluralName": "Coffee Shops", "shortName": "Coffee Shop", "icon": {"prefix": "https://ss3.4sqi.net/img/categories_v2/food/coffeeshop_", "suffix": ".png"}, "primary": true}], "referralId": "v-1575940046", "hasPerk": false}, {"id": "4f3830c1e4b0d408a545eded", "name": "Allegro Coffee Company", "location": {"address": "959 W Fullerton", "lat": 41.90869690887794, "lng": -87.65292763710022, "labeledLatLngs": [{"label": "display", "lat": 41.90869690887794, "lng": -87.65292763710022}], "postalCode": "60614", "cc": "US", "city": "Chicago", "state": "IL", "country": "United States", "formattedAddress": ["959 W Fullerton", "Chicago, IL 60614", "United States"]}, "categories": [{"id": "4bf58dd8d48988d1e0931735", "name": "Coffee Shop", "pluralName": "Coffee Shops", "shortName": "Coffee Shop", "icon": {"prefix": "https://ss3.4sqi.net/img/categories_v2/food/coffeeshop_", "suffix": ".png"}, "primary": true}], "referralId": "v-1575940046", "hasPerk": false}, {"id": "54c65fa2498edf6cf29df04d", "name": "Peet's Coffee & Tea", "location": {"address": "400 N Michigan Ave", "lat": 41.88953302621039, "lng": -87.62496299800276, "labeledLatLngs": [{"label": "display", "lat": 41.88953302621039, "lng": -87.62496299800276}], "postalCode": "60611", "cc": "US", "city": "Chicago", "state": "IL", "country": "United States", "formattedAddress": ["400 N Michigan Ave", "Chicago, IL 60611", "United States"]}, "categories": [{"id": "4bf58dd8d48988d1e0931735", "name": "Coffee Shop", "pluralName": "Coffee Shops", "shortName": "Coffee Shop", "icon": {"prefix": "https://ss3.4sqi.net/img/categories_v2/food/coffeeshop_", "suffix": ".png"}, "primary": true}], "venuePage": {"id": "146608607"}, "referralId": "v-1575940046", "hasPerk": false}], "confident": false, "geocode": {"what": "", "where": "chicago", "feature": {"cc": "US", "name": "Chicago", "displayName": "Chicago, IL, United States", "matchedName": "Chicago, IL, United States", "highlightedName": "<b>Chicago</b>, IL, United States", "woeType": 7, "slug": "chicago-illinois", "id": "geonameid:4887398", "longId": "72057594042815334", "geometry": {"center": {"lat": 41.85003, "lng": -87.65005}, "bounds": {"ne": {"lat": 42.023134999999996, "lng": -87.52366099999999}, "sw": {"lat": 41.644286, "lng": -87.940101}}}}, "parents": []}}, "university of florida4bf58dd8d48988d16d941735": {"venues": [{"id": "4f26a02fe4b04f6e6b50a532", "name": "Law School Commons", "location": {"lat": 29.649298248234345, "lng": -82.35889144099242, "labeledLatLngs": [{"label": "display", "lat": 29.649298248234345, "lng": -82.35889144099242}], "postalCode": "32601", "cc": "US", "city": "Gainesville", "state": "FL", "country": "United States", "formattedAddress": ["Gainesville, FL 32601", "United States"]}, "categories": [{"id": "4bf58dd8d48988d16d941735", "name": "Caf\u00e9", "pluralName": "Caf\u00e9s", "shortName": "Caf\u00e9", "icon": {"prefix": "https://ss3.4sqi.net/img/categories_v2/food/cafe_", "suffix": ".png"}, "primary": true}], "referralId": "v-1575950056", "hasPerk": false}, {"id": "4b648e28f964a5203ebd2ae3", "name": "Old Florida Cafe", "location": {"address": "203 NE Cholokka Blvd", "lat": 29.505014, "lng": -82.279228, "labeledLatLngs": [{"label": "display", "lat": 29.505014, "lng": -82.279228}], "postalCode": "32667", "cc": "US", "city": "Micanopy", "state": "FL", "country": "United States", "formattedAddress": ["203 NE Cholokka Blvd", "Micanopy, FL 32667", "United States"]}, "categories": [{"id": "4bf58dd8d48988d16d941735", "name": "Caf\u00e9", "pluralName": "Caf\u00e9s", "shortName": "Caf\u00e9", "icon": {"prefix": "https://ss3.4sqi.net/img/categories_v2/food/cafe_", "suffix": ".png"}, "primary": true}], "referralId": "v-1575950056", "hasPerk": false}, {"id": "5bc634c6d807ee002c201734", "name": "Teastori", "location": {"lat": 29.621257, "lng": -82.373792, "labeledLatLngs": [{"label": "display", "lat": 29.621257, "lng": -82.373792}], "postalCode": "32608", "cc": "US", "city": "Gainesville", "state": "FL", "country": "United States", "formattedAddress": ["Gainesville, FL 32608", "United States"]}, "categories": [{"id": "52e81612bcbc57f1066b7a0c", "name": "Bubble Tea Shop", "pluralName": "Bubble Tea Shops", "shortName": "Bubble Tea", "icon": {"prefix": "https://ss3.4sqi.net/img/categories_v2/food/bubble_", "suffix": ".png"}, "primary": true}], "referralId": "v-1575950056", "hasPerk": false}, {"id": "5b6ecd74dff8150039570650", "name": "Dunkin'", "location": {"address": "2900 SW 42nd St", "lat": 29.627321152282722, "lng": -82.3882302828207, "labeledLatLngs": [{"label": "display", "lat": 29.627321152282722, "lng": -82.3882302828207}], "postalCode": "32608", "cc": "US", "city": "Gainesville", "state": "FL", "country": "United States", "formattedAddress": ["2900 SW 42nd St", "Gainesville, FL 32608", "United States"]}, "categories": [{"id": "4bf58dd8d48988d148941735", "name": "Donut Shop", "pluralName": "Donut Shops", "shortName": "Donuts", "icon": {"prefix": "https://ss3.4sqi.net/img/categories_v2/food/donuts_", "suffix": ".png"}, "primary": true}], "referralId": "v-1575950056", "hasPerk": false}, {"id": "4b7dd69cf964a52083d72fe3", "name": "Tropical Smoothie Cafe", "location": {"address": "3345 SW 34th St Ste 5", "lat": 29.623838778187995, "lng": -82.37120815427022, "labeledLatLngs": [{"label": "display", "lat": 29.623838778187995, "lng": -82.37120815427022}], "postalCode": "32608", "cc": "US", "city": "Gainesville", "state": "FL", "country": "United States", "formattedAddress": ["3345 SW 34th St Ste 5", "Gainesville, FL 32608", "United States"]}, "categories": [{"id": "4bf58dd8d48988d16d941735", "name": "Caf\u00e9", "pluralName": "Caf\u00e9s", "shortName": "Caf\u00e9", "icon": {"prefix": "https://ss3.4sqi.net/img/categories_v2/food/cafe_", "suffix": ".png"}, "primary": true}], "referralId": "v-1575950056", "hasPerk": false}, {"id": "4b490a9ff964a5204d6326e3", "name": "Maude's Classic Caf\u00e9", "location": {"address": "101 SE 2nd Pl", "crossStreet": "btw S Main St. & SE 2 St.", "lat": 29.649672423526514, "lng": -82.32377693343244, "labeledLatLngs": [{"label": "display", "lat": 29.649672423526514, "lng": -82.32377693343244}], "postalCode": "32601", "cc": "US", "city": "Gainesville", "state": "FL", "country": "United States", "formattedAddress": ["101 SE 2nd Pl (btw S Main St. & SE 2 St.)", "Gainesville, FL 32601", "United States"]}, "categories": [{"id": "4bf58dd8d48988d1e0931735", "name": "Coffee Shop", "pluralName": "Coffee Shops", "shortName": "Coffee Shop", "icon": {"prefix": "https://ss3.4sqi.net/img/categories_v2/food/coffeeshop_", "suffix": ".png"}, "primary": true}], "referralId": "v-1575950056", "hasPerk": false}, {"id": "4c546f29479fc92873b32393", "name": "Coffee N Cream", "location": {"address": "201 NE Cholokka Blvd", "lat": 29.504548, "lng": -82.279256, "labeledLatLngs": [{"label": "display", "lat": 29.504548, "lng": -82.279256}], "postalCode": "32667", "cc": "US", "city": "Micanopy", "state": "FL", "country": "United States", "formattedAddress": ["201 NE Cholokka Blvd", "Micanopy, FL 32667", "United States"]}, "categories": [{"id": "4bf58dd8d48988d16d941735", "name": "Caf\u00e9", "pluralName": "Caf\u00e9s", "shortName": "Caf\u00e9", "icon": {"prefix": "https://ss3.4sqi.net/img/categories_v2/food/cafe_", "suffix": ".png"}, "primary": true}], "referralId": "v-1575950056", "hasPerk": false}, {"id": "58e00fd619b1ad32c1d3c24a", "name": "Micanopy Cafe", "location": {"lat": 29.50447, "lng": -82.279271, "labeledLatLngs": [{"label": "display", "lat": 29.50447, "lng": -82.279271}], "postalCode": "32667", "cc": "US", "city": "Micanopy", "state": "FL", "country": "United States", "formattedAddress": ["Micanopy, FL 32667", "United States"]}, "categories": [{"id": "4bf58dd8d48988d16d941735", "name": "Caf\u00e9", "pluralName": "Caf\u00e9s", "shortName": "Caf\u00e9", "icon": {"prefix": "https://ss3.4sqi.net/img/categories_v2/food/cafe_", "suffix": ".png"}, "primary": true}], "referralId": "v-1575950056", "hasPerk": false}, {"id": "5afdab16f00a70002c0c5bd0", "name": "Grand Cafe", "location": {"lat": 29.651496, "lng": -82.325457, "labeledLatLngs": [{"label": "display", "lat": 29.651496, "lng": -82.325457}], "postalCode": "32601", "cc": "US", "city": "Gainesville", "state": "FL", "country": "United States", "formattedAddress": ["Gainesville, FL 32601", "United States"]}, "categories": [{"id": "4bf58dd8d48988d16d941735", "name": "Caf\u00e9", "pluralName": "Caf\u00e9s", "shortName": "Caf\u00e9", "icon": {"prefix": "https://ss3.4sqi.net/img/categories_v2/food/cafe_", "suffix": ".png"}, "primary": true}], "referralId": "v-1575950056", "hasPerk": false}, {"id": "51c63a7ae4b03190aae52194", "name": "Vine Bread & Pasta", "location": {"address": "627 N Main St", "lat": 29.657828066105402, "lng": -82.32468047972738, "labeledLatLngs": [{"label": "display", "lat": 29.657828066105402, "lng": -82.32468047972738}], "postalCode": "32601", "cc": "US", "city": "Gainesville", "state": "FL", "country": "United States", "formattedAddress": ["627 N Main St", "Gainesville, FL 32601", "United States"]}, "categories": [{"id": "4bf58dd8d48988d16a941735", "name": "Bakery", "pluralName": "Bakeries", "shortName": "Bakery", "icon": {"prefix": "https://ss3.4sqi.net/img/categories_v2/food/bakery_", "suffix": ".png"}, "primary": true}], "referralId": "v-1575950056", "hasPerk": false}, {"id": "4b599a69f964a520698e28e3", "name": "Krispy Kreme Doughnuts", "location": {"address": "306 NW 13th St", "lat": 29.65420949087667, "lng": -82.33960303221403, "labeledLatLngs": [{"label": "display", "lat": 29.65420949087667, "lng": -82.33960303221403}], "postalCode": "32601", "cc": "US", "city": "Gainesville", "state": "FL", "country": "United States", "formattedAddress": ["306 NW 13th St", "Gainesville, FL 32601", "United States"]}, "categories": [{"id": "4bf58dd8d48988d148941735", "name": "Donut Shop", "pluralName": "Donut Shops", "shortName": "Donuts", "icon": {"prefix": "https://ss3.4sqi.net/img/categories_v2/food/donuts_", "suffix": ".png"}, "primary": true}], "referralId": "v-1575950056", "hasPerk": false}, {"id": "4f48edf6e4b01e144f279019", "name": "Bella Cafe", "location": {"address": "NFRMC", "lat": 29.660535101186436, "lng": -82.41154109799854, "labeledLatLngs": [{"label": "display", "lat": 29.660535101186436, "lng": -82.41154109799854}], "postalCode": "32605", "cc": "US", "city": "Gainesville", "state": "FL", "country": "United States", "formattedAddress": ["NFRMC", "Gainesville, FL 32605", "United States"]}, "categories": [{"id": "4bf58dd8d48988d16d941735", "name": "Caf\u00e9", "pluralName": "Caf\u00e9s", "shortName": "Caf\u00e9", "icon": {"prefix": "https://ss3.4sqi.net/img/categories_v2/food/cafe_", "suffix": ".png"}, "primary": true}], "referralId": "v-1575950056", "hasPerk": false}, {"id": "4f492735e4b07d0dde80fc83", "name": "The Cafe Grill", "location": {"address": "NFRMC", "lat": 29.66030435156562, "lng": -82.41132937182394, "labeledLatLngs": [{"label": "display", "lat": 29.66030435156562, "lng": -82.41132937182394}], "postalCode": "32605", "cc": "US", "city": "Gainesville", "state": "FL", "country": "United States", "formattedAddress": ["NFRMC", "Gainesville, FL 32605", "United States"]}, "categories": [{"id": "4bf58dd8d48988d16d941735", "name": "Caf\u00e9", "pluralName": "Caf\u00e9s", "shortName": "Caf\u00e9", "icon": {"prefix": "https://ss3.4sqi.net/img/categories_v2/food/cafe_", "suffix": ".png"}, "primary": true}], "referralId": "v-1575950056", "hasPerk": false}, {"id": "4c320835452620a1f264210f", "name": "The Station Bakery & Cafe", "location": {"address": "20 NW Railroad Ave", "lat": 29.826496383333332, "lng": -82.59803468, "labeledLatLngs": [{"label": "display", "lat": 29.826496383333332, "lng": -82.59803468}], "postalCode": "32643", "cc": "US", "city": "High Springs", "state": "FL", "country": "United States", "formattedAddress": ["20 NW Railroad Ave", "High Springs, FL 32643", "United States"]}, "categories": [{"id": "4bf58dd8d48988d16d941735", "name": "Caf\u00e9", "pluralName": "Caf\u00e9s", "shortName": "Caf\u00e9", "icon": {"prefix": "https://ss3.4sqi.net/img/categories_v2/food/cafe_", "suffix": ".png"}, "primary": true}], "referralId": "v-1575950056", "hasPerk": false}, {"id": "4f54db54e4b0e14ed9adecc5", "name": "blue moon cafe", "location": {"address": "High Springs, FL", "lat": 29.819693597089103, "lng": -82.60128852213583, "labeledLatLngs": [{"label": "display", "lat": 29.819693597089103, "lng": -82.60128852213583}], "postalCode": "32643", "cc": "US", "city": "High Springs", "state": "FL", "country": "United States", "formattedAddress": ["High Springs, FL", "High Springs, FL 32643", "United States"]}, "categories": [{"id": "4bf58dd8d48988d16d941735", "name": "Caf\u00e9", "pluralName": "Caf\u00e9s", "shortName": "Caf\u00e9", "icon": {"prefix": "https://ss3.4sqi.net/img/categories_v2/food/cafe_", "suffix": ".png"}, "primary": true}], "referralId": "v-1575950056", "hasPerk": false}, {"id": "4ddfa3258877e0877e5e2c65", "name": "Haile Plantation Village", "location": {"address": "SW 91st Ave. and 51st Rd.", "lat": 29.60695835667698, "lng": -82.43858381050168, "labeledLatLngs": [{"label": "display", "lat": 29.60695835667698, "lng": -82.43858381050168}], "postalCode": "32608", "cc": "US", "city": "Gainesville", "state": "FL", "country": "United States", "formattedAddress": ["SW 91st Ave. and 51st Rd.", "Gainesville, FL 32608", "United States"]}, "categories": [{"id": "4bf58dd8d48988d16d941735", "name": "Caf\u00e9", "pluralName": "Caf\u00e9s", "shortName": "Caf\u00e9", "icon": {"prefix": "https://ss3.4sqi.net/img/categories_v2/food/cafe_", "suffix": ".png"}, "primary": true}], "referralId": "v-1575950056", "hasPerk": false}, {"id": "4b44cb3bf964a5205ffc25e3", "name": "McAlister's Deli", "location": {"address": "618 NW 60th St Ste C", "lat": 29.6586356055457, "lng": -82.40696119211708, "labeledLatLngs": [{"label": "display", "lat": 29.6586356055457, "lng": -82.40696119211708}], "postalCode": "32607", "cc": "US", "city": "Gainesville", "state": "FL", "country": "United States", "formattedAddress": ["618 NW 60th St Ste C", "Gainesville, FL 32607", "United States"]}, "categories": [{"id": "4bf58dd8d48988d146941735", "name": "Deli / Bodega", "pluralName": "Delis / Bodegas", "shortName": "Deli / Bodega", "icon": {"prefix": "https://ss3.4sqi.net/img/categories_v2/food/deli_", "suffix": ".png"}, "primary": true}], "referralId": "v-1575950056", "hasPerk": false}, {"id": "4bab425bf964a520229c3ae3", "name": "Bagel Bakery", "location": {"address": "4113 NW 16th Blvd", "lat": 29.67234831558394, "lng": -82.38719944290179, "labeledLatLngs": [{"label": "display", "lat": 29.67234831558394, "lng": -82.38719944290179}], "postalCode": "32605", "cc": "US", "city": "Gainesville", "state": "FL", "country": "United States", "formattedAddress": ["4113 NW 16th Blvd", "Gainesville, FL 32605", "United States"]}, "categories": [{"id": "4bf58dd8d48988d179941735", "name": "Bagel Shop", "pluralName": "Bagel Shops", "shortName": "Bagels", "icon": {"prefix": "https://ss3.4sqi.net/img/categories_v2/food/bagels_", "suffix": ".png"}, "primary": true}], "referralId": "v-1575950056", "hasPerk": false}, {"id": "4b5b14c8f964a520a2e228e3", "name": "The Flying Biscuit Caf\u00e9", "location": {"address": "4150 NW 16th Blvd", "crossStreet": "at NW 43rd St & NW 23rd Ave", "lat": 29.67465767934881, "lng": -82.3879161631621, "labeledLatLngs": [{"label": "display", "lat": 29.67465767934881, "lng": -82.3879161631621}], "postalCode": "32605", "cc": "US", "city": "Gainesville", "state": "FL", "country": "United States", "formattedAddress": ["4150 NW 16th Blvd (at NW 43rd St & NW 23rd Ave)", "Gainesville, FL 32605", "United States"]}, "categories": [{"id": "4bf58dd8d48988d143941735", "name": "Breakfast Spot", "pluralName": "Breakfast Spots", "shortName": "Breakfast", "icon": {"prefix": "https://ss3.4sqi.net/img/categories_v2/food/breakfast_", "suffix": ".png"}, "primary": true}], "referralId": "v-1575950056", "hasPerk": false}, {"id": "4b58a889f964a520236428e3", "name": "East End Eatery", "location": {"address": "1202 NE 8th Ave", "lat": 29.659544462289674, "lng": -82.30996322120879, "labeledLatLngs": [{"label": "display", "lat": 29.659544462289674, "lng": -82.30996322120879}], "postalCode": "32601", "cc": "US", "city": "Gainesville", "state": "FL", "country": "United States", "formattedAddress": ["1202 NE 8th Ave", "Gainesville, FL 32601", "United States"]}, "categories": [{"id": "4bf58dd8d48988d16d941735", "name": "Caf\u00e9", "pluralName": "Caf\u00e9s", "shortName": "Caf\u00e9", "icon": {"prefix": "https://ss3.4sqi.net/img/categories_v2/food/cafe_", "suffix": ".png"}, "primary": true}], "referralId": "v-1575950056", "hasPerk": false}, {"id": "4b465df0f964a520e31e26e3", "name": "Panera Bread", "location": {"address": "3443 SW Archer Rd", "lat": 29.6251381, "lng": -82.3737318, "labeledLatLngs": [{"label": "display", "lat": 29.6251381, "lng": -82.3737318}], "postalCode": "32608", "cc": "US", "city": "Gainesville", "state": "FL", "country": "United States", "formattedAddress": ["3443 SW Archer Rd", "Gainesville, FL 32608", "United States"]}, "categories": [{"id": "4bf58dd8d48988d16a941735", "name": "Bakery", "pluralName": "Bakeries", "shortName": "Bakery", "icon": {"prefix": "https://ss3.4sqi.net/img/categories_v2/food/bakery_", "suffix": ".png"}, "primary": true}], "delivery": {"id": "1290813", "url": "https://www.grubhub.com/restaurant/panera-bread-3443-sw-archer-rd-gainesville/1290813?affiliate=1131&utm_source=foursquare-affiliate-network&utm_medium=affiliate&utm_campaign=1131&utm_content=1290813", "provider": {"name": "grubhub", "icon": {"prefix": "https://fastly.4sqi.net/img/general/cap/", "sizes": [40, 50], "name": "/delivery_provider_grubhub_20180129.png"}}}, "referralId": "v-1575950056", "hasPerk": false}, {"id": "547dfb42498e2e7d12cd6649", "name": "Panera Bread", "location": {"address": "6017 W Newberry Rd", "lat": 29.659276, "lng": -82.407637, "labeledLatLngs": [{"label": "display", "lat": 29.659276, "lng": -82.407637}], "postalCode": "32605", "cc": "US", "city": "Gainesville", "state": "FL", "country": "United States", "formattedAddress": ["6017 W Newberry Rd", "Gainesville, FL 32605", "United States"]}, "categories": [{"id": "4bf58dd8d48988d16a941735", "name": "Bakery", "pluralName": "Bakeries", "shortName": "Bakery", "icon": {"prefix": "https://ss3.4sqi.net/img/categories_v2/food/bakery_", "suffix": ".png"}, "primary": true}], "referralId": "v-1575950056", "hasPerk": false}, {"id": "4b6cbab6f964a520c64f2ce3", "name": "Pomodoro Cafe", "location": {"address": "9200 NW 39th Ave", "lat": 29.691265570935876, "lng": -82.4396887653988, "labeledLatLngs": [{"label": "display", "lat": 29.691265570935876, "lng": -82.4396887653988}], "postalCode": "32606", "cc": "US", "city": "Gainesville", "state": "FL", "country": "United States", "formattedAddress": ["9200 NW 39th Ave", "Gainesville, FL 32606", "United States"]}, "categories": [{"id": "4bf58dd8d48988d110941735", "name": "Italian Restaurant", "pluralName": "Italian Restaurants", "shortName": "Italian", "icon": {"prefix": "https://ss3.4sqi.net/img/categories_v2/food/italian_", "suffix": ".png"}, "primary": true}], "delivery": {"id": "1171919", "url": "https://www.grubhub.com/restaurant/pomodoro-cafe-9200-nw-39th-ave-ste-100-gainesville/1171919?affiliate=1131&utm_source=foursquare-affiliate-network&utm_medium=affiliate&utm_campaign=1131&utm_content=1171919", "provider": {"name": "grubhub", "icon": {"prefix": "https://fastly.4sqi.net/img/general/cap/", "sizes": [40, 50], "name": "/delivery_provider_grubhub_20180129.png"}}}, "referralId": "v-1575950056", "hasPerk": false}, {"id": "50eef5a6e4b0b14a43de6cb5", "name": "Dr Bob's Cafe", "location": {"lat": 29.651109, "lng": -82.328005, "labeledLatLngs": [{"label": "display", "lat": 29.651109, "lng": -82.328005}], "postalCode": "32601", "cc": "US", "city": "Gainesville", "state": "FL", "country": "United States", "formattedAddress": ["Gainesville, FL 32601", "United States"]}, "categories": [{"id": "4bf58dd8d48988d16d941735", "name": "Caf\u00e9", "pluralName": "Caf\u00e9s", "shortName": "Caf\u00e9", "icon": {"prefix": "https://ss3.4sqi.net/img/categories_v2/food/cafe_", "suffix": ".png"}, "primary": true}], "referralId": "v-1575950056", "hasPerk": false}, {"id": "4bd4e1e36798ef3be69f628d", "name": "Wild Iris Books", "location": {"address": "22 SE 5th Ave Ste D", "lat": 29.65228646584086, "lng": -82.33299146770284, "labeledLatLngs": [{"label": "display", "lat": 29.65228646584086, "lng": -82.33299146770284}], "postalCode": "32601", "cc": "US", "city": "Gainesville", "state": "FL", "country": "United States", "formattedAddress": ["22 SE 5th Ave Ste D", "Gainesville, FL 32601", "United States"]}, "categories": [{"id": "4bf58dd8d48988d114951735", "name": "Bookstore", "pluralName": "Bookstores", "shortName": "Bookstore", "icon": {"prefix": "https://ss3.4sqi.net/img/categories_v2/shops/bookstore_", "suffix": ".png"}, "primary": true}], "referralId": "v-1575950056", "hasPerk": false}], "confident": false, "geocode": {"what": "", "where": "university of florida", "feature": {"cc": "US", "name": "University of Florida", "displayName": "University of Florida, FL, United States", "matchedName": "University of Florida, FL, United States", "highlightedName": "<b>University of Florida</b>, FL, United States", "woeType": 20, "id": "geonameid:4176235", "longId": "72057594042104171", "geometry": {"center": {"lat": 29.64858, "lng": -82.34927}, "bounds": {"ne": {"lat": 29.653001, "lng": -82.331139}, "sw": {"lat": 29.613629, "lng": -82.372599}}}}, "parents": []}}}